{
"type": "FeatureCollection",
"name": "hospitals",
"crs": { "type": "name", "properties": { "name": "urn:ogc:def:crs:OGC:1.3:CRS84" } },
"features": [
{ "type": "Feature", "properties": { "ObjectID": 1, "FACILITY_NAME": "Cedar Park Regional Medical Center", "FACILITY_TYPE": "Acute Care Hospital", "ADDRESS": "1401 Medical Parkway", "CITY": "Cedar Park" }, "geometry": null },
{ "type": "Feature", "properties": { "ObjectID": 2, "FACILITY_NAME": "Dell Children's Medical Center", "FACILITY_TYPE": "Acute Care Hospital", "ADDRESS": "4900 Mueller Blvd", "CITY": "Austin" }, "geometry": { "type": "Point", "coordinates": [ -97.706170930359903, 30.303445330846198 ] } },
{ "type": "Feature", "properties": { "ObjectID": 3, "FACILITY_NAME": "Heart Hospital of Austin", "FACILITY_TYPE": "Acute Care Hospital", "ADDRESS": "3801 North Lamar Blvd", "CITY": "Austin" }, "geometry": { "type": "Point", "coordinates": [ -97.742808978137305, 30.3053875288314 ] } },
{ "type": "Feature", "properties": { "ObjectID": 4, "FACILITY_NAME": "North Austin Medical Center", "FACILITY_TYPE": "Acute Care Hospital", "ADDRESS": "12221 N. Mopac Expwy", "CITY": "Austin" }, "geometry": { "type": "Point", "coordinates": [ -97.706863123507603, 30.412489852745299 ] } },
{ "type": "Feature", "properties": { "ObjectID": 5, "FACILITY_NAME": "Scott & White Hospital - Round Rock", "FACILITY_TYPE": "Acute Care Hospital", "ADDRESS": "300 University Blvd", "CITY": "Round Rock" }, "geometry": null },
{ "type": "Feature", "properties": { "ObjectID": 6, "FACILITY_NAME": "Seton Medical Center", "FACILITY_TYPE": "Acute Care Hospital", "ADDRESS": "1201 West 38th Street", "CITY": "Austin" }, "geometry": { "type": "Point", "coordinates": [ -97.745402224011499, 30.304914434013799 ] } },
{ "type": "Feature", "properties": { "ObjectID": 7, "FACILITY_NAME": "Seton Medical Center Hays ", "FACILITY_TYPE": "Acute Care Hospital", "ADDRESS": "6001 Kyle Parkway", "CITY": "Kyle" }, "geometry": null },
{ "type": "Feature", "properties": { "ObjectID": 8, "FACILITY_NAME": "Seton Medical Center Williamson", "FACILITY_TYPE": "Acute Care Hospital", "ADDRESS": "201 Seton Parkway", "CITY": "Round Rock" }, "geometry": null },
{ "type": "Feature", "properties": { "ObjectID": 9, "FACILITY_NAME": "Seton Northwest Hospital", "FACILITY_TYPE": "Acute Care Hospital", "ADDRESS": "11113 Research Blvd", "CITY": "Austin" }, "geometry": { "type": "Point", "coordinates": [ -97.744647046542795, 30.406242216123498 ] } },
{ "type": "Feature", "properties": { "ObjectID": 10, "FACILITY_NAME": "Seton Southwest Hospital", "FACILITY_TYPE": "Acute Care Hospital", "ADDRESS": "7900 FM-1826", "CITY": "Austin" }, "geometry": { "type": "Point", "coordinates": [ -97.891737358049497, 30.228055602609199 ] } },
{ "type": "Feature", "properties": { "ObjectID": 11, "FACILITY_NAME": "South Austin Medical Center", "FACILITY_TYPE": "Acute Care Hospital", "ADDRESS": "901 W. Ben White Blvd.", "CITY": "Austin" }, "geometry": { "type": "Point", "coordinates": [ -97.774429605785102, 30.226383261368198 ] } },
{ "type": "Feature", "properties": { "ObjectID": 12, "FACILITY_NAME": "St. David's Medical Center", "FACILITY_TYPE": "Acute Care Hospital", "ADDRESS": "919 E. 32nd Street", "CITY": "Austin" }, "geometry": { "type": "Point", "coordinates": [ -97.726744758318105, 30.290681142962001 ] } },
{ "type": "Feature", "properties": { "ObjectID": 13, "FACILITY_NAME": "St. David's Round Rock Medical Center", "FACILITY_TYPE": "Acute Care Hospital", "ADDRESS": "2400 Round Rock Avenue", "CITY": "Round Rock" }, "geometry": { "type": "Point", "coordinates": [ -97.713411961424598, 30.508966229497702 ] } },
{ "type": "Feature", "properties": { "ObjectID": 14, "FACILITY_NAME": "University Medical Center at Brackenridge", "FACILITY_TYPE": "Acute Care Hospital", "ADDRESS": "601 East 15th Street", "CITY": "Austin" }, "geometry": { "type": "Point", "coordinates": [ -97.733791242614799, 30.2750334452018 ] } },
{ "type": "Feature", "properties": { "ObjectID": 15, "FACILITY_NAME": "Westlake Medical Center", "FACILITY_TYPE": "Acute Care Hospital", "ADDRESS": "5656 Bee Caves Road", "CITY": "West Lake Hills" }, "geometry": { "type": "Point", "coordinates": [ -97.824442040695899, 30.2949813215739 ] } },
{ "type": "Feature", "properties": { "ObjectID": 16, "FACILITY_NAME": "Lakeway Regional Medical Center", "FACILITY_TYPE": "Acute Care Hospital", "ADDRESS": "100 Medical Parkway", "CITY": "Lakeway" }, "geometry": { "type": "Point", "coordinates": [ -97.971449344721293, 30.332918135248299 ] } },
{ "type": "Feature", "properties": { "ObjectID": 17, "FACILITY_NAME": "St. David's Emergency Center Bee Caves", "FACILITY_TYPE": "Free Standing ED", "ADDRESS": "12813 Galleria Cir", "CITY": "Bee Cave" }, "geometry": { "type": "Point", "coordinates": [ -97.940982135825294, 30.307913753944199 ] } },
{ "type": "Feature", "properties": { "ObjectID": 18, "FACILITY_NAME": "St. David's Emergency Center Pflugerville", "FACILITY_TYPE": "Free Standing ED", "ADDRESS": "18917 Limestone Commercial Drive", "CITY": "Pflugerville" }, "geometry": { "type": "Point", "coordinates": [ -97.594851247435003, 30.470423268092802 ] } },
{ "type": "Feature", "properties": { "ObjectID": 19, "FACILITY_NAME": "St. David's Emergency Center Cedar Park", "FACILITY_TYPE": "Free Standing ED", "ADDRESS": "14016 N. Highway 183", "CITY": "Cedar Park" }, "geometry": { "type": "Point", "coordinates": [ -97.823881041382407, 30.511195101147202 ] } },
{ "type": "Feature", "properties": { "ObjectID": 20, "FACILITY_NAME": "North Austin Medical Center Children's Hospital", "FACILITY_TYPE": "Acute Care Hospital", "ADDRESS": "12221 N. Mopac Expwy", "CITY": "Austin" }, "geometry": { "type": "Point", "coordinates": [ -97.706863123507603, 30.412489852745299 ] } }
]
}
