{
"type": "FeatureCollection",
"name": "transit_stops",
"crs": { "type": "name", "properties": { "name": "urn:ogc:def:crs:OGC:1.3:CRS84" } },
"features": [
{ "type": "Feature", "properties": { "OBJECTID": 1, "STOP_ID": 956, "STOP_NAME": "WOODROW/ANDERSON", "STOP_TYPE": "Bus Stop", "STATUS": "Active" }, "geometry": { "type": "Point", "coordinates": [ -97.723400001207494, 30.352450000863399 ] } },
{ "type": "Feature", "properties": { "OBJECTID": 2, "STOP_ID": 958, "STOP_NAME": "WOODROW/PRINCETON", "STOP_TYPE": "Bus Stop", "STATUS": "Active" }, "geometry": { "type": "Point", "coordinates": [ -97.723185498583007, 30.349882251147999 ] } },
{ "type": "Feature", "properties": { "OBJECTID": 3, "STOP_ID": 960, "STOP_NAME": "WOODROW/RICHCREEK", "STOP_TYPE": "Bus Stop", "STATUS": "Active" }, "geometry": { "type": "Point", "coordinates": [ -97.7247988049333, 30.346067743434599 ] } },
{ "type": "Feature", "properties": { "OBJECTID": 4, "STOP_ID": 962, "STOP_NAME": "7100 WOODROW/PIEDMONT", "STOP_TYPE": "Bus Stop", "STATUS": "Active" }, "geometry": { "type": "Point", "coordinates": [ -97.725123621201703, 30.342980792209001 ] } },
{ "type": "Feature", "properties": { "OBJECTID": 5, "STOP_ID": 963, "STOP_NAME": "7000 WOODROW/CULLEN", "STOP_TYPE": "Bus Stop", "STATUS": "Active" }, "geometry": { "type": "Point", "coordinates": [ -97.725903958556401, 30.341521788647398 ] } },
{ "type": "Feature", "properties": { "OBJECTID": 6, "STOP_ID": 964, "STOP_NAME": "6800 WOODROW/CHOQUETTE", "STOP_TYPE": "Bus Stop", "STATUS": "Active" }, "geometry": { "type": "Point", "coordinates": [ -97.727376177331706, 30.3392080081295 ] } },
{ "type": "Feature", "properties": { "OBJECTID": 7, "STOP_ID": 965, "STOP_NAME": "6600 WOODROW/BRENTWOOD", "STOP_TYPE": "Bus Stop", "STATUS": "Active" }, "geometry": { "type": "Point", "coordinates": [ -97.728461269881706, 30.337479348822399 ] } },
{ "type": "Feature", "properties": { "OBJECTID": 8, "STOP_ID": 966, "STOP_NAME": "WOODROW/PAYNE", "STOP_TYPE": "Bus Stop", "STATUS": "Active" }, "geometry": { "type": "Point", "coordinates": [ -97.729446304391701, 30.335923232841001 ] } },
{ "type": "Feature", "properties": { "OBJECTID": 9, "STOP_ID": 967, "STOP_NAME": "WOODROW/ROMERIA", "STOP_TYPE": "Bus Stop", "STATUS": "Active" }, "geometry": { "type": "Point", "coordinates": [ -97.730682336400506, 30.3336371846985 ] } },
{ "type": "Feature", "properties": { "OBJECTID": 10, "STOP_ID": 968, "STOP_NAME": "5900 Woodrow/Koenig", "STOP_TYPE": "Bus Stop", "STATUS": "Active" }, "geometry": { "type": "Point", "coordinates": [ -97.7316001401271, 30.3310240543403 ] } },
{ "type": "Feature", "properties": { "OBJECTID": 11, "STOP_ID": 969, "STOP_NAME": "5626 WOODROW/THECKLA", "STOP_TYPE": "Bus Stop", "STATUS": "Active" }, "geometry": { "type": "Point", "coordinates": [ -97.732957496649604, 30.328866295703399 ] } },
{ "type": "Feature", "properties": { "OBJECTID": 12, "STOP_ID": 971, "STOP_NAME": "5300 WOODROW/NORTH LOOP", "STOP_TYPE": "Bus Stop", "STATUS": "Active" }, "geometry": { "type": "Point", "coordinates": [ -97.735849264927694, 30.3242956271793 ] } },
{ "type": "Feature", "properties": { "OBJECTID": 13, "STOP_ID": 972, "STOP_NAME": "5200 Woodrow/North", "STOP_TYPE": "Bus Stop", "STATUS": "Active" }, "geometry": { "type": "Point", "coordinates": [ -97.736954611287899, 30.322571013731402 ] } },
{ "type": "Feature", "properties": { "OBJECTID": 14, "STOP_ID": 973, "STOP_NAME": "1215 51ST/GROVER", "STOP_TYPE": "Bus Stop", "STATUS": "Active" }, "geometry": { "type": "Point", "coordinates": [ -97.735873014918297, 30.320538417821901 ] } },
{ "type": "Feature", "properties": { "OBJECTID": 15, "STOP_ID": 974, "STOP_NAME": "1143 49Th/Grover", "STOP_TYPE": "Bus Stop", "STATUS": "Active" }, "geometry": { "type": "Point", "coordinates": [ -97.736463019221404, 30.318547404452602 ] } },
{ "type": "Feature", "properties": { "OBJECTID": 16, "STOP_ID": 977, "STOP_NAME": "909 45Th/Lamar", "STOP_TYPE": "Bus Stop", "STATUS": "Active" }, "geometry": { "type": "Point", "coordinates": [ -97.736887102223207, 30.312980175925102 ] } },
{ "type": "Feature", "properties": { "OBJECTID": 17, "STOP_ID": 978, "STOP_NAME": "507 45TH/GUADALUPE", "STOP_TYPE": "Bus Stop", "STATUS": "Active" }, "geometry": { "type": "Point", "coordinates": [ -97.732617955246596, 30.310606578629901 ] } },
{ "type": "Feature", "properties": { "OBJECTID": 18, "STOP_ID": 979, "STOP_NAME": "301 45Th/Avenue C", "STOP_TYPE": "Bus Stop", "STATUS": "Active" }, "geometry": { "type": "Point", "coordinates": [ -97.730391858409106, 30.3095346745645 ] } },
{ "type": "Feature", "properties": { "OBJECTID": 19, "STOP_ID": 980, "STOP_NAME": "SPEEDWAY/45TH", "STOP_TYPE": "Bus Stop", "STATUS": "Active" }, "geometry": { "type": "Point", "coordinates": [ -97.728673815628099, 30.3083495123789 ] } },
{ "type": "Feature", "properties": { "OBJECTID": 20, "STOP_ID": 981, "STOP_NAME": "4300 Speedway/43Rd", "STOP_TYPE": "Bus Stop", "STATUS": "Active" }, "geometry": { "type": "Point", "coordinates": [ -97.729731503822507, 30.3066968751627 ] } },
{ "type": "Feature", "properties": { "OBJECTID": 21, "STOP_ID": 982, "STOP_NAME": "4004 SPEEDWAY/40TH", "STOP_TYPE": "Bus Stop", "STATUS": "Active" }, "geometry": { "type": "Point", "coordinates": [ -97.731786172259305, 30.303497846029799 ] } },
{ "type": "Feature", "properties": { "OBJECTID": 22, "STOP_ID": 983, "STOP_NAME": "3812 Speedway/38Th Half", "STOP_TYPE": "Bus Stop", "STATUS": "Active" }, "geometry": { "type": "Point", "coordinates": [ -97.733132316804998, 30.3013801344675 ] } },
{ "type": "Feature", "properties": { "OBJECTID": 23, "STOP_ID": 985, "STOP_NAME": "3204 SPEEDWAY/33RD", "STOP_TYPE": "Bus Stop", "STATUS": "Active" }, "geometry": { "type": "Point", "coordinates": [ -97.735815898617005, 30.297130340878802 ] } },
{ "type": "Feature", "properties": { "OBJECTID": 24, "STOP_ID": 993, "STOP_NAME": "CESAR CHAVEZ/BRAZOS", "STOP_TYPE": "Bus Stop", "STATUS": "Active" }, "geometry": { "type": "Point", "coordinates": [ -97.743364553655596, 30.2629685379612 ] } },
{ "type": "Feature", "properties": { "OBJECTID": 25, "STOP_ID": 995, "STOP_NAME": "515 CESAR CHAVEZ/RED RIVER", "STOP_TYPE": "Bus Stop", "STATUS": "Active" }, "geometry": { "type": "Point", "coordinates": [ -97.738932252184995, 30.261711531766 ] } },
{ "type": "Feature", "properties": { "OBJECTID": 26, "STOP_ID": 999, "STOP_NAME": "Riverside/Summit", "STOP_TYPE": "Bus Stop", "STATUS": "Active" }, "geometry": { "type": "Point", "coordinates": [ -97.731836369800703, 30.2459760597282 ] } },
{ "type": "Feature", "properties": { "OBJECTID": 27, "STOP_ID": 1002, "STOP_NAME": "RIVERSIDE/BURTON", "STOP_TYPE": "Bus Stop", "STATUS": "Active" }, "geometry": { "type": "Point", "coordinates": [ -97.727307918014901, 30.240340701977399 ] } },
{ "type": "Feature", "properties": { "OBJECTID": 28, "STOP_ID": 1003, "STOP_NAME": "2237 Riverside/Willow Creek", "STOP_TYPE": "Bus Stop", "STATUS": "Active" }, "geometry": { "type": "Point", "coordinates": [ -97.726014533621694, 30.238275224875999 ] } },
{ "type": "Feature", "properties": { "OBJECTID": 29, "STOP_ID": 1005, "STOP_NAME": "2507 RIVERSIDE/PLEASANT VALLEY", "STOP_TYPE": "Bus Stop", "STATUS": "Active" }, "geometry": { "type": "Point", "coordinates": [ -97.723759711758603, 30.233867039616701 ] } },
{ "type": "Feature", "properties": { "OBJECTID": 30, "STOP_ID": 1379, "STOP_NAME": "1017 SPRINGDALE/GOODWIN", "STOP_TYPE": "Bus Stop", "STATUS": "Active" }, "geometry": { "type": "Point", "coordinates": [ -97.694387763953102, 30.267243811141899 ] } },
{ "type": "Feature", "properties": { "OBJECTID": 31, "STOP_ID": 1381, "STOP_NAME": "1053 SPRINGDALE/PROCK", "STOP_TYPE": "Bus Stop", "STATUS": "Active" }, "geometry": { "type": "Point", "coordinates": [ -97.691930000177507, 30.271059999030701 ] } },
{ "type": "Feature", "properties": { "OBJECTID": 32, "STOP_ID": 1382, "STOP_NAME": "1107 SPRINGDALE/LEDESMA", "STOP_TYPE": "Bus Stop", "STATUS": "Active" }, "geometry": { "type": "Point", "coordinates": [ -97.689893969721197, 30.2742989384992 ] } },
{ "type": "Feature", "properties": { "OBJECTID": 33, "STOP_ID": 1383, "STOP_NAME": "1161 SPRINGDALE/WEBBERVILLE", "STOP_TYPE": "Bus Stop", "STATUS": "Active" }, "geometry": { "type": "Point", "coordinates": [ -97.688064149690106, 30.2770958792931 ] } },
{ "type": "Feature", "properties": { "OBJECTID": 34, "STOP_ID": 1384, "STOP_NAME": "1207 SPRINGDALE/12TH", "STOP_TYPE": "Bus Stop", "STATUS": "Active" }, "geometry": { "type": "Point", "coordinates": [ -97.686346120427302, 30.279924490077899 ] } },
{ "type": "Feature", "properties": { "OBJECTID": 35, "STOP_ID": 1385, "STOP_NAME": "SPRINGDALE/LESLIE", "STOP_TYPE": "Bus Stop", "STATUS": "Active" }, "geometry": { "type": "Point", "coordinates": [ -97.684815106083306, 30.282374431744199 ] } },
{ "type": "Feature", "properties": { "OBJECTID": 36, "STOP_ID": 1387, "STOP_NAME": "1819 SPRINGDALE/MARTIN LUTHER", "STOP_TYPE": "Bus Stop", "STATUS": "Closed" }, "geometry": { "type": "Point", "coordinates": [ -97.682730000273693, 30.2855699981939 ] } },
{ "type": "Feature", "properties": { "OBJECTID": 37, "STOP_ID": 1396, "STOP_NAME": "BERKMAN/LARKWOOD", "STOP_TYPE": "Bus Stop", "STATUS": "Active" }, "geometry": { "type": "Point", "coordinates": [ -97.694729998510596, 30.3103599992223 ] } },
{ "type": "Feature", "properties": { "OBJECTID": 38, "STOP_ID": 1398, "STOP_NAME": "6001 BERKMAN/BRIARCLIFF", "STOP_TYPE": "Bus Stop", "STATUS": "Active" }, "geometry": { "type": "Point", "coordinates": [ -97.692049466437496, 30.314785799983198 ] } },
{ "type": "Feature", "properties": { "OBJECTID": 39, "STOP_ID": 1399, "STOP_NAME": "6207 BERKMAN/GLEN VALLEY", "STOP_TYPE": "Bus Stop", "STATUS": "Active" }, "geometry": { "type": "Point", "coordinates": [ -97.691029162561406, 30.316460138726899 ] } },
{ "type": "Feature", "properties": { "OBJECTID": 40, "STOP_ID": 1400, "STOP_NAME": "6509 BERKMAN/WHELESS", "STOP_TYPE": "Bus Stop", "STATUS": "Active" }, "geometry": { "type": "Point", "coordinates": [ -97.689633944404306, 30.318728245948499 ] } },
{ "type": "Feature", "properties": { "OBJECTID": 41, "STOP_ID": 1401, "STOP_NAME": "BERKMAN/US 290 SE CORNER", "STOP_TYPE": "Bus Stop", "STATUS": "Active" }, "geometry": { "type": "Point", "coordinates": [ -97.6887712616561, 30.320740543047201 ] } },
{ "type": "Feature", "properties": { "OBJECTID": 42, "STOP_ID": 1402, "STOP_NAME": "BERKMAN/US 290 NE CORNER", "STOP_TYPE": "Bus Stop", "STATUS": "Active" }, "geometry": { "type": "Point", "coordinates": [ -97.688990000933401, 30.322439998303501 ] } },
{ "type": "Feature", "properties": { "OBJECTID": 43, "STOP_ID": 1409, "STOP_NAME": "1008 ST JOHNS/BETHUNE", "STOP_TYPE": "Bus Stop", "STATUS": "Active" }, "geometry": { "type": "Point", "coordinates": [ -97.698539999243295, 30.330319999061 ] } },
{ "type": "Feature", "properties": { "OBJECTID": 44, "STOP_ID": 1410, "STOP_NAME": "900 ST JOHNS/BENNETT", "STOP_TYPE": "Bus Stop", "STATUS": "Active" }, "geometry": { "type": "Point", "coordinates": [ -97.701246610562393, 30.331594127659798 ] } },
{ "type": "Feature", "properties": { "OBJECTID": 45, "STOP_ID": 1412, "STOP_NAME": "7100 ROLAND JOHNSON/ST JOHNS", "STOP_TYPE": "Bus Stop", "STATUS": "Active" }, "geometry": { "type": "Point", "coordinates": [ -97.706079238510895, 30.333174347976101 ] } },
{ "type": "Feature", "properties": { "OBJECTID": 46, "STOP_ID": 1413, "STOP_NAME": "6970 ROLAND JOHNSON/HUNTLAND", "STOP_TYPE": "Bus Stop", "STATUS": "Active" }, "geometry": { "type": "Point", "coordinates": [ -97.706982529993994, 30.330907269277201 ] } },
{ "type": "Feature", "properties": { "OBJECTID": 47, "STOP_ID": 1414, "STOP_NAME": "300 HUNTLAND/BRENDA", "STOP_TYPE": "Bus Stop", "STATUS": "Active" }, "geometry": { "type": "Point", "coordinates": [ -97.710681070505402, 30.330853581698399 ] } },
{ "type": "Feature", "properties": { "OBJECTID": 48, "STOP_ID": 1415, "STOP_NAME": "6500 JONATHAN DR (HIGHLAND MAL", "STOP_TYPE": "Bus Stop", "STATUS": "Active" }, "geometry": { "type": "Point", "coordinates": [ -97.713055923207506, 30.328766752695898 ] } },
{ "type": "Feature", "properties": { "OBJECTID": 49, "STOP_ID": 1417, "STOP_NAME": "7401 LAMAR/ST JOHNS", "STOP_TYPE": "Bus Stop", "STATUS": "Active" }, "geometry": { "type": "Point", "coordinates": [ -97.716606944009499, 30.341113497374 ] } },
{ "type": "Feature", "properties": { "OBJECTID": 50, "STOP_ID": 1423, "STOP_NAME": "EXPOSITION/WARREN", "STOP_TYPE": "Bus Stop", "STATUS": "Active" }, "geometry": { "type": "Point", "coordinates": [ -97.762879000433699, 30.3095511990375 ] } },
{ "type": "Feature", "properties": { "OBJECTID": 51, "STOP_ID": 1424, "STOP_NAME": "EXPOSITION/MOUNTAIN LAUREL", "STOP_TYPE": "Bus Stop", "STATUS": "Active" }, "geometry": { "type": "Point", "coordinates": [ -97.763402029960901, 30.307627968064001 ] } },
{ "type": "Feature", "properties": { "OBJECTID": 52, "STOP_ID": 1425, "STOP_NAME": "EXPOSITION/NORTHWOOD", "STOP_TYPE": "Bus Stop", "STATUS": "Active" }, "geometry": { "type": "Point", "coordinates": [ -97.764927470558504, 30.3054959880985 ] } },
{ "type": "Feature", "properties": { "OBJECTID": 53, "STOP_ID": 1426, "STOP_NAME": "2728 EXPOSITION (CASIS ELEMENT", "STOP_TYPE": "Bus Stop", "STATUS": "Active" }, "geometry": { "type": "Point", "coordinates": [ -97.764541663974299, 30.303789711351499 ] } },
{ "type": "Feature", "properties": { "OBJECTID": 54, "STOP_ID": 1444, "STOP_NAME": "1801 ENFIELD/HARTFORD", "STOP_TYPE": "Bus Stop", "STATUS": "Active" }, "geometry": { "type": "Point", "coordinates": [ -97.762233362982698, 30.284785990590201 ] } },
{ "type": "Feature", "properties": { "OBJECTID": 55, "STOP_ID": 1446, "STOP_NAME": "1603 ENFIELD/WEST LYNN", "STOP_TYPE": "Bus Stop", "STATUS": "Active" }, "geometry": { "type": "Point", "coordinates": [ -97.758105122068599, 30.282771043431101 ] } },
{ "type": "Feature", "properties": { "OBJECTID": 56, "STOP_ID": 1465, "STOP_NAME": "OLTORF/ALTA VISTA", "STOP_TYPE": "Bus Stop", "STATUS": "Active" }, "geometry": { "type": "Point", "coordinates": [ -97.747189999465604, 30.236319998852 ] } },
{ "type": "Feature", "properties": { "OBJECTID": 57, "STOP_ID": 1466, "STOP_NAME": "1101 OLTORF/ALTA VISTA", "STOP_TYPE": "Bus Stop", "STATUS": "Active" }, "geometry": { "type": "Point", "coordinates": [ -97.745687882048102, 30.235650613342401 ] } },
{ "type": "Feature", "properties": { "OBJECTID": 58, "STOP_ID": 1008, "STOP_NAME": "4411 OLTORF/HUNTWICK", "STOP_TYPE": "Bus Stop", "STATUS": "Active" }, "geometry": { "type": "Point", "coordinates": [ -97.726260280211804, 30.226619373316801 ] } },
{ "type": "Feature", "properties": { "OBJECTID": 59, "STOP_ID": 1009, "STOP_NAME": "2401 WICKERSHAM/OLTORF", "STOP_TYPE": "Bus Stop", "STATUS": "Active" }, "geometry": { "type": "Point", "coordinates": [ -97.723487992800798, 30.226039405524801 ] } },
{ "type": "Feature", "properties": { "OBJECTID": 60, "STOP_ID": 1010, "STOP_NAME": "WICKERSHAM/CROMWELL", "STOP_TYPE": "Bus Stop", "STATUS": "Active" }, "geometry": { "type": "Point", "coordinates": [ -97.721846725976306, 30.2270206536767 ] } },
{ "type": "Feature", "properties": { "OBJECTID": 61, "STOP_ID": 1011, "STOP_NAME": "2207 WICKERSHAM/SHERINGHAM", "STOP_TYPE": "Bus Stop", "STATUS": "Active" }, "geometry": { "type": "Point", "coordinates": [ -97.721352896307906, 30.229315421603399 ] } },
{ "type": "Feature", "properties": { "OBJECTID": 62, "STOP_ID": 1013, "STOP_NAME": "4825 RIVERSIDE/KIRKSEY", "STOP_TYPE": "Bus Stop", "STATUS": "Active" }, "geometry": { "type": "Point", "coordinates": [ -97.717041432420402, 30.2313162435936 ] } },
{ "type": "Feature", "properties": { "OBJECTID": 63, "STOP_ID": 1015, "STOP_NAME": "5401 RIVERSIDE/FARO", "STOP_TYPE": "Bus Stop", "STATUS": "Active" }, "geometry": { "type": "Point", "coordinates": [ -97.712324142578694, 30.229168718896499 ] } },
{ "type": "Feature", "properties": { "OBJECTID": 64, "STOP_ID": 1017, "STOP_NAME": "RUIZ LIBRARY", "STOP_TYPE": "Bus Stop", "STATUS": "Active" }, "geometry": { "type": "Point", "coordinates": [ -97.706557918919898, 30.229539083098999 ] } },
{ "type": "Feature", "properties": { "OBJECTID": 65, "STOP_ID": 1018, "STOP_NAME": "RIVERSIDE/FARO", "STOP_TYPE": "Bus Stop", "STATUS": "Active" }, "geometry": { "type": "Point", "coordinates": [ -97.712897808810993, 30.229832774491701 ] } },
{ "type": "Feature", "properties": { "OBJECTID": 66, "STOP_ID": 1021, "STOP_NAME": "4823 RIVERSIDE/CROSSING PLACE", "STOP_TYPE": "Bus Stop", "STATUS": "Active" }, "geometry": { "type": "Point", "coordinates": [ -97.717861363207405, 30.231927861196802 ] } },
{ "type": "Feature", "properties": { "OBJECTID": 67, "STOP_ID": 1022, "STOP_NAME": "2100 WICKERSHAM/RIVERSIDE", "STOP_TYPE": "Bus Stop", "STATUS": "Active" }, "geometry": { "type": "Point", "coordinates": [ -97.720883841676496, 30.231525668764998 ] } },
{ "type": "Feature", "properties": { "OBJECTID": 68, "STOP_ID": 1023, "STOP_NAME": "WICKERSHAM/SHERINGHAM", "STOP_TYPE": "Bus Stop", "STATUS": "Active" }, "geometry": { "type": "Point", "coordinates": [ -97.721493056675897, 30.229913866766399 ] } },
{ "type": "Feature", "properties": { "OBJECTID": 69, "STOP_ID": 1024, "STOP_NAME": "2300 WICKERSHAM/CROMWELL", "STOP_TYPE": "Bus Stop", "STATUS": "Active" }, "geometry": { "type": "Point", "coordinates": [ -97.721730543374903, 30.227533835456299 ] } },
{ "type": "Feature", "properties": { "OBJECTID": 70, "STOP_ID": 1025, "STOP_NAME": "2440 WICKERSHAM/OLTORF", "STOP_TYPE": "Bus Stop", "STATUS": "Active" }, "geometry": { "type": "Point", "coordinates": [ -97.723783694981904, 30.2260830927424 ] } },
{ "type": "Feature", "properties": { "OBJECTID": 71, "STOP_ID": 1027, "STOP_NAME": "Oltorf East NB (Pleasant Valle", "STOP_TYPE": "Rapid Station", "STATUS": "Active" }, "geometry": { "type": "Point", "coordinates": [ -97.727295277429207, 30.228001951400302 ] } },
{ "type": "Feature", "properties": { "OBJECTID": 72, "STOP_ID": 1028, "STOP_NAME": "Sheringham NB (Pleasant Valley", "STOP_TYPE": "Rapid Station", "STATUS": "Active" }, "geometry": { "type": "Point", "coordinates": [ -97.725308564504601, 30.231157518707199 ] } },
{ "type": "Feature", "properties": { "OBJECTID": 73, "STOP_ID": 1030, "STOP_NAME": "RIVERSIDE/WILLOW CREEK", "STOP_TYPE": "Bus Stop", "STATUS": "Active" }, "geometry": { "type": "Point", "coordinates": [ -97.725634755833994, 30.238065337597799 ] } },
{ "type": "Feature", "properties": { "OBJECTID": 74, "STOP_ID": 1032, "STOP_NAME": "RIVERSIDE/TOWN CREEK", "STOP_TYPE": "Bus Stop", "STATUS": "Active" }, "geometry": { "type": "Point", "coordinates": [ -97.727591391736098, 30.241140439960201 ] } },
{ "type": "Feature", "properties": { "OBJECTID": 75, "STOP_ID": 1034, "STOP_NAME": "1600 RIVERSIDE/SUMMIT", "STOP_TYPE": "Bus Stop", "STATUS": "Active" }, "geometry": { "type": "Point", "coordinates": [ -97.731969154308103, 30.2465052683172 ] } },
{ "type": "Feature", "properties": { "OBJECTID": 76, "STOP_ID": 1038, "STOP_NAME": "400 CESAR CHAVEZ/TRINITY", "STOP_TYPE": "Bus Stop", "STATUS": "Active" }, "geometry": { "type": "Point", "coordinates": [ -97.740840001249097, 30.262459998299502 ] } },
{ "type": "Feature", "properties": { "OBJECTID": 77, "STOP_ID": 1042, "STOP_NAME": "2231 GUADALUPE/WEST MALL UT", "STOP_TYPE": "Bus Stop", "STATUS": "Active" }, "geometry": { "type": "Point", "coordinates": [ -97.741619736211206, 30.285754342947499 ] } },
{ "type": "Feature", "properties": { "OBJECTID": 78, "STOP_ID": 1049, "STOP_NAME": "SPEEDWAY/35TH", "STOP_TYPE": "Bus Stop", "STATUS": "Active" }, "geometry": { "type": "Point", "coordinates": [ -97.734341148197799, 30.299217205843298 ] } },
{ "type": "Feature", "properties": { "OBJECTID": 79, "STOP_ID": 1051, "STOP_NAME": "SPEEDWAY/39TH", "STOP_TYPE": "Bus Stop", "STATUS": "Active" }, "geometry": { "type": "Point", "coordinates": [ -97.732825359223895, 30.301590623349899 ] } },
{ "type": "Feature", "properties": { "OBJECTID": 80, "STOP_ID": 1053, "STOP_NAME": "4301 SPEEDWAY/43RD", "STOP_TYPE": "Bus Stop", "STATUS": "Active" }, "geometry": { "type": "Point", "coordinates": [ -97.729615864538303, 30.306615654920801 ] } },
{ "type": "Feature", "properties": { "OBJECTID": 81, "STOP_ID": 1054, "STOP_NAME": "108 45TH STREET/AVENUE D", "STOP_TYPE": "Bus Stop", "STATUS": "Active" }, "geometry": { "type": "Point", "coordinates": [ -97.729235119809005, 30.309111674121901 ] } },
{ "type": "Feature", "properties": { "OBJECTID": 82, "STOP_ID": 1055, "STOP_NAME": "408 45TH STREET/AVENUE A", "STOP_TYPE": "Bus Stop", "STATUS": "Active" }, "geometry": { "type": "Point", "coordinates": [ -97.731877990271002, 30.310424539645101 ] } },
{ "type": "Feature", "properties": { "OBJECTID": 83, "STOP_ID": 1056, "STOP_NAME": "619 45Th/Guadalupe", "STOP_TYPE": "Bus Stop", "STATUS": "Active" }, "geometry": { "type": "Point", "coordinates": [ -97.733276928792904, 30.311122099921299 ] } },
{ "type": "Feature", "properties": { "OBJECTID": 84, "STOP_ID": 1057, "STOP_NAME": "918 45TH/LAMAR", "STOP_TYPE": "Bus Stop", "STATUS": "Active" }, "geometry": { "type": "Point", "coordinates": [ -97.737245151760405, 30.313397389933598 ] } },
{ "type": "Feature", "properties": { "OBJECTID": 85, "STOP_ID": 1058, "STOP_NAME": "SUNSHINE STATION (NB)", "STOP_TYPE": "Rapid Station", "STATUS": "Active" }, "geometry": { "type": "Point", "coordinates": [ -97.735727655453999, 30.3164190733455 ] } },
{ "type": "Feature", "properties": { "OBJECTID": 86, "STOP_ID": 1059, "STOP_NAME": "4801 SUNSHINE (CRISS COLE REHA", "STOP_TYPE": "Bus Stop", "STATUS": "Active" }, "geometry": { "type": "Point", "coordinates": [ -97.735124507638105, 30.317373304980499 ] } },
{ "type": "Feature", "properties": { "OBJECTID": 87, "STOP_ID": 1062, "STOP_NAME": "5113 WOODROW/NORTH", "STOP_TYPE": "Bus Stop", "STATUS": "Active" }, "geometry": { "type": "Point", "coordinates": [ -97.736891858880497, 30.322370958848602 ] } },
{ "type": "Feature", "properties": { "OBJECTID": 88, "STOP_ID": 1063, "STOP_NAME": "5223 WOODROW/NORTH LOOP", "STOP_TYPE": "Bus Stop", "STATUS": "Active" }, "geometry": { "type": "Point", "coordinates": [ -97.735824182519394, 30.324060647154798 ] } },
{ "type": "Feature", "properties": { "OBJECTID": 89, "STOP_ID": 1064, "STOP_NAME": "5413 WOODROW/HOUSTON", "STOP_TYPE": "Bus Stop", "STATUS": "Active" }, "geometry": { "type": "Point", "coordinates": [ -97.734481991399306, 30.326186185508501 ] } },
{ "type": "Feature", "properties": { "OBJECTID": 90, "STOP_ID": 1065, "STOP_NAME": "5515 WOODROW/HOUSTON", "STOP_TYPE": "Bus Stop", "STATUS": "Active" }, "geometry": { "type": "Point", "coordinates": [ -97.733602770472899, 30.327564762865599 ] } },
{ "type": "Feature", "properties": { "OBJECTID": 91, "STOP_ID": 1066, "STOP_NAME": "5701 WOODROW/THECKLA", "STOP_TYPE": "Bus Stop", "STATUS": "Active" }, "geometry": { "type": "Point", "coordinates": [ -97.732672736620401, 30.329034177441301 ] } },
{ "type": "Feature", "properties": { "OBJECTID": 92, "STOP_ID": 1067, "STOP_NAME": "5819 WOODROW/KOENIG", "STOP_TYPE": "Bus Stop", "STATUS": "Active" }, "geometry": { "type": "Point", "coordinates": [ -97.731579784061907, 30.330737178617198 ] } },
{ "type": "Feature", "properties": { "OBJECTID": 93, "STOP_ID": 1068, "STOP_NAME": "WOODROW/ALGUNO", "STOP_TYPE": "Bus Stop", "STATUS": "Active" }, "geometry": { "type": "Point", "coordinates": [ -97.730682427146803, 30.332811053411501 ] } },
{ "type": "Feature", "properties": { "OBJECTID": 94, "STOP_ID": 1069, "STOP_NAME": "WOODROW/ALEGRIA", "STOP_TYPE": "Bus Stop", "STATUS": "Active" }, "geometry": { "type": "Point", "coordinates": [ -97.730127997973895, 30.3345726668075 ] } },
{ "type": "Feature", "properties": { "OBJECTID": 95, "STOP_ID": 1070, "STOP_NAME": "6523 WOODROW/BRENTWOOD", "STOP_TYPE": "Bus Stop", "STATUS": "Active" }, "geometry": { "type": "Point", "coordinates": [ -97.728419975305698, 30.337279052250601 ] } },
{ "type": "Feature", "properties": { "OBJECTID": 96, "STOP_ID": 1072, "STOP_NAME": "WOODROW/DWYCE", "STOP_TYPE": "Bus Stop", "STATUS": "Active" }, "geometry": { "type": "Point", "coordinates": [ -97.726593909794502, 30.340170628418701 ] } },
{ "type": "Feature", "properties": { "OBJECTID": 97, "STOP_ID": 1074, "STOP_NAME": "7115 WOODROW/PIEDMONT", "STOP_TYPE": "Bus Stop", "STATUS": "Active" }, "geometry": { "type": "Point", "coordinates": [ -97.724984399898602, 30.3428493666649 ] } },
{ "type": "Feature", "properties": { "OBJECTID": 98, "STOP_ID": 1075, "STOP_NAME": "WOODROW/PASADENA", "STOP_TYPE": "Bus Stop", "STATUS": "Active" }, "geometry": { "type": "Point", "coordinates": [ -97.725209810872599, 30.344977058885998 ] } },
{ "type": "Feature", "properties": { "OBJECTID": 99, "STOP_ID": 1076, "STOP_NAME": "WOODROW/MORROW", "STOP_TYPE": "Bus Stop", "STATUS": "Active" }, "geometry": { "type": "Point", "coordinates": [ -97.723760903499695, 30.3474295439865 ] } },
{ "type": "Feature", "properties": { "OBJECTID": 100, "STOP_ID": 1077, "STOP_NAME": "7717 WOODROW/PRINCETON", "STOP_TYPE": "Bus Stop", "STATUS": "Active" }, "geometry": { "type": "Point", "coordinates": [ -97.723020000318698, 30.349890000392602 ] } },
{ "type": "Feature", "properties": { "OBJECTID": 101, "STOP_ID": 1078, "STOP_NAME": "1700 ANDERSON/WOOTEN PARK", "STOP_TYPE": "Bus Stop", "STATUS": "Active" }, "geometry": { "type": "Point", "coordinates": [ -97.723619998016005, 30.352789998474702 ] } },
{ "type": "Feature", "properties": { "OBJECTID": 102, "STOP_ID": 1080, "STOP_NAME": "ANDERSON/MULLEN", "STOP_TYPE": "Bus Stop", "STATUS": "Active" }, "geometry": { "type": "Point", "coordinates": [ -97.726220002092703, 30.354010000045601 ] } },
{ "type": "Feature", "properties": { "OBJECTID": 103, "STOP_ID": 1085, "STOP_NAME": "JACKIE ROBINSON/DELANO", "STOP_TYPE": "Bus Stop", "STATUS": "Active" }, "geometry": { "type": "Point", "coordinates": [ -97.678349782618895, 30.2765879544482 ] } },
{ "type": "Feature", "properties": { "OBJECTID": 104, "STOP_ID": 1089, "STOP_NAME": "1420 WEBBERVILLE/FORT BRANCH", "STOP_TYPE": "Bus Stop", "STATUS": "Active" }, "geometry": { "type": "Point", "coordinates": [ -97.681063095841907, 30.279889726609699 ] } },
{ "type": "Feature", "properties": { "OBJECTID": 105, "STOP_ID": 1091, "STOP_NAME": "12TH/WEBBERVILLE", "STOP_TYPE": "Bus Stop", "STATUS": "Active" }, "geometry": { "type": "Point", "coordinates": [ -97.684918032157597, 30.278253726869501 ] } },
{ "type": "Feature", "properties": { "OBJECTID": 106, "STOP_ID": 1092, "STOP_NAME": "4600 12TH/SPRINGDALE", "STOP_TYPE": "Bus Stop", "STATUS": "Active" }, "geometry": { "type": "Point", "coordinates": [ -97.686681528627105, 30.278941175802402 ] } },
{ "type": "Feature", "properties": { "OBJECTID": 107, "STOP_ID": 1094, "STOP_NAME": "3522 12TH/E M FRANKLIN", "STOP_TYPE": "Bus Stop", "STATUS": "Active" }, "geometry": { "type": "Point", "coordinates": [ -97.694461364517807, 30.2778639372874 ] } },
{ "type": "Feature", "properties": { "OBJECTID": 108, "STOP_ID": 1096, "STOP_NAME": "3250 12TH/AIRPORT", "STOP_TYPE": "Bus Stop", "STATUS": "Active" }, "geometry": { "type": "Point", "coordinates": [ -97.700177740973203, 30.2769775461291 ] } },
{ "type": "Feature", "properties": { "OBJECTID": 109, "STOP_ID": 1098, "STOP_NAME": "12TH/HARVEY", "STOP_TYPE": "Bus Stop", "STATUS": "Active" }, "geometry": { "type": "Point", "coordinates": [ -97.704239733680296, 30.276345590761 ] } },
{ "type": "Feature", "properties": { "OBJECTID": 110, "STOP_ID": 1099, "STOP_NAME": "2900 12TH/ALEXANDER", "STOP_TYPE": "Bus Stop", "STATUS": "Active" }, "geometry": { "type": "Point", "coordinates": [ -97.708093494989797, 30.2757226165071 ] } },
{ "type": "Feature", "properties": { "OBJECTID": 111, "STOP_ID": 1101, "STOP_NAME": "12TH/CEDAR", "STOP_TYPE": "Bus Stop", "STATUS": "Active" }, "geometry": { "type": "Point", "coordinates": [ -97.713399432070801, 30.274879277125098 ] } },
{ "type": "Feature", "properties": { "OBJECTID": 112, "STOP_ID": 1102, "STOP_NAME": "2204 12TH/CHESTNUT", "STOP_TYPE": "Bus Stop", "STATUS": "Active" }, "geometry": { "type": "Point", "coordinates": [ -97.716485581061505, 30.274389783898599 ] } },
{ "type": "Feature", "properties": { "OBJECTID": 113, "STOP_ID": 1103, "STOP_NAME": "1914 12TH/CHICON", "STOP_TYPE": "Bus Stop", "STATUS": "Active" }, "geometry": { "type": "Point", "coordinates": [ -97.719141934870294, 30.273962741985802 ] } },
{ "type": "Feature", "properties": { "OBJECTID": 114, "STOP_ID": 1060, "STOP_NAME": "1100 49TH/GROVER", "STOP_TYPE": "Bus Stop", "STATUS": "Active" }, "geometry": { "type": "Point", "coordinates": [ -97.736638295312801, 30.318788974596401 ] } },
{ "type": "Feature", "properties": { "OBJECTID": 115, "STOP_ID": 1061, "STOP_NAME": "1200 51ST/GROVER", "STOP_TYPE": "Bus Stop", "STATUS": "Active" }, "geometry": { "type": "Point", "coordinates": [ -97.735988948968, 30.32070686866 ] } },
{ "type": "Feature", "properties": { "OBJECTID": 116, "STOP_ID": 1105, "STOP_NAME": "1700 12TH/LEONA", "STOP_TYPE": "Bus Stop", "STATUS": "Active" }, "geometry": { "type": "Point", "coordinates": [ -97.721869539136193, 30.273520669502101 ] } },
{ "type": "Feature", "properties": { "OBJECTID": 117, "STOP_ID": 1106, "STOP_NAME": "1400 12TH/ANGELINA", "STOP_TYPE": "Bus Stop", "STATUS": "Active" }, "geometry": { "type": "Point", "coordinates": [ -97.724900420267304, 30.273059196954001 ] } },
{ "type": "Feature", "properties": { "OBJECTID": 118, "STOP_ID": 1107, "STOP_NAME": "1220 12TH/SAN BERNARD", "STOP_TYPE": "Bus Stop", "STATUS": "Active" }, "geometry": { "type": "Point", "coordinates": [ -97.726844247585902, 30.2727269313202 ] } },
{ "type": "Feature", "properties": { "OBJECTID": 119, "STOP_ID": 1109, "STOP_NAME": "12TH/IH-35", "STOP_TYPE": "Bus Stop", "STATUS": "Active" }, "geometry": { "type": "Point", "coordinates": [ -97.7308421097825, 30.2720878601796 ] } },
{ "type": "Feature", "properties": { "OBJECTID": 120, "STOP_ID": 1113, "STOP_NAME": "12TH/BRANCH", "STOP_TYPE": "Bus Stop", "STATUS": "Active" }, "geometry": { "type": "Point", "coordinates": [ -97.731305799409995, 30.2718858587094 ] } },
{ "type": "Feature", "properties": { "OBJECTID": 121, "STOP_ID": 1114, "STOP_NAME": "12TH/NAVASOTA", "STOP_TYPE": "Bus Stop", "STATUS": "Active" }, "geometry": { "type": "Point", "coordinates": [ -97.727844044855999, 30.272433504036702 ] } },
{ "type": "Feature", "properties": { "OBJECTID": 122, "STOP_ID": 1212, "STOP_NAME": "Dove Springs SB (Pleasant Vall", "STOP_TYPE": "Rapid Station", "STATUS": "Active" }, "geometry": { "type": "Point", "coordinates": [ -97.744772407351206, 30.1937476626806 ] } },
{ "type": "Feature", "properties": { "OBJECTID": 123, "STOP_ID": 1213, "STOP_NAME": "Village Square SB (Pleasant Va", "STOP_TYPE": "Rapid Station", "STATUS": "Active" }, "geometry": { "type": "Point", "coordinates": [ -97.745544638631301, 30.188889349274799 ] } },
{ "type": "Feature", "properties": { "OBJECTID": 124, "STOP_ID": 1214, "STOP_NAME": "6100 PLEASANT VALLEY/DOVE SPRI", "STOP_TYPE": "Bus Stop", "STATUS": "Active" }, "geometry": { "type": "Point", "coordinates": [ -97.7456477512373, 30.185358381378801 ] } },
{ "type": "Feature", "properties": { "OBJECTID": 125, "STOP_ID": 1215, "STOP_NAME": "6406 PLEASANT VALLEY/CREEK BEN", "STOP_TYPE": "Bus Stop", "STATUS": "Active" }, "geometry": { "type": "Point", "coordinates": [ -97.746096762536993, 30.182114142061501 ] } },
{ "type": "Feature", "properties": { "OBJECTID": 126, "STOP_ID": 1219, "STOP_NAME": "6107 PLEASANT VALLEY/TURNSTONE", "STOP_TYPE": "Bus Stop", "STATUS": "Active" }, "geometry": { "type": "Point", "coordinates": [ -97.745195997625203, 30.185198136332701 ] } },
{ "type": "Feature", "properties": { "OBJECTID": 127, "STOP_ID": 1220, "STOP_NAME": "Village Square NB (Pleasant Va", "STOP_TYPE": "Rapid Station", "STATUS": "Active" }, "geometry": { "type": "Point", "coordinates": [ -97.745290459495394, 30.188891187331699 ] } },
{ "type": "Feature", "properties": { "OBJECTID": 128, "STOP_ID": 1223, "STOP_NAME": "2522 STASSNEY/CHAPARRAL", "STOP_TYPE": "Bus Stop", "STATUS": "Active" }, "geometry": { "type": "Point", "coordinates": [ -97.747015999711806, 30.193919329356898 ] } },
{ "type": "Feature", "properties": { "OBJECTID": 129, "STOP_ID": 1224, "STOP_NAME": "2408 STASSNEY/PALO BLANCO", "STOP_TYPE": "Bus Stop", "STATUS": "Active" }, "geometry": { "type": "Point", "coordinates": [ -97.750685133733796, 30.193713659243901 ] } },
{ "type": "Feature", "properties": { "OBJECTID": 130, "STOP_ID": 1228, "STOP_NAME": "2008 TERI/PEPPER", "STOP_TYPE": "Bus Stop", "STATUS": "Active" }, "geometry": { "type": "Point", "coordinates": [ -97.752516183947506, 30.202327850822901 ] } },
{ "type": "Feature", "properties": { "OBJECTID": 131, "STOP_ID": 1229, "STOP_NAME": "4801 FREIDRICH/TERI", "STOP_TYPE": "Bus Stop", "STATUS": "Active" }, "geometry": { "type": "Point", "coordinates": [ -97.753036426708405, 30.204466072825301 ] } },
{ "type": "Feature", "properties": { "OBJECTID": 132, "STOP_ID": 1230, "STOP_NAME": "4601 FREIDRICH/CITY YARD", "STOP_TYPE": "Bus Stop", "STATUS": "Active" }, "geometry": { "type": "Point", "coordinates": [ -97.750683918226301, 30.208173966402601 ] } },
{ "type": "Feature", "properties": { "OBJECTID": 133, "STOP_ID": 1231, "STOP_NAME": "4217 FREIDRICH/ST ELMO", "STOP_TYPE": "Bus Stop", "STATUS": "Active" }, "geometry": { "type": "Point", "coordinates": [ -97.748689418066803, 30.211338906951401 ] } },
{ "type": "Feature", "properties": { "OBJECTID": 134, "STOP_ID": 1232, "STOP_NAME": "4115 FREIDRICH/WOODWARD", "STOP_TYPE": "Bus Stop", "STATUS": "Active" }, "geometry": { "type": "Point", "coordinates": [ -97.746115844688802, 30.213483722718799 ] } },
{ "type": "Feature", "properties": { "OBJECTID": 135, "STOP_ID": 1233, "STOP_NAME": "WOODWARD/BEN WHITE SE CORNER", "STOP_TYPE": "Bus Stop", "STATUS": "Active" }, "geometry": { "type": "Point", "coordinates": [ -97.744145592687005, 30.215081078102301 ] } },
{ "type": "Feature", "properties": { "OBJECTID": 136, "STOP_ID": 1235, "STOP_NAME": "1901 WOODWARD/PARKER", "STOP_TYPE": "Bus Stop", "STATUS": "Active" }, "geometry": { "type": "Point", "coordinates": [ -97.743789426063998, 30.219456023887599 ] } },
{ "type": "Feature", "properties": { "OBJECTID": 137, "STOP_ID": 1237, "STOP_NAME": "3101 PARKER/WICKSHIRE", "STOP_TYPE": "Bus Stop", "STATUS": "Active" }, "geometry": { "type": "Point", "coordinates": [ -97.742158021875497, 30.2245171887113 ] } },
{ "type": "Feature", "properties": { "OBJECTID": 138, "STOP_ID": 1238, "STOP_NAME": "2801 PARKER/ROYAL HILL", "STOP_TYPE": "Bus Stop", "STATUS": "Active" }, "geometry": { "type": "Point", "coordinates": [ -97.740386648286503, 30.2273812819721 ] } },
{ "type": "Feature", "properties": { "OBJECTID": 139, "STOP_ID": 1239, "STOP_NAME": "2501 PARKER/BRAXTON", "STOP_TYPE": "Bus Stop", "STATUS": "Active" }, "geometry": { "type": "Point", "coordinates": [ -97.738199749683901, 30.2301440906073 ] } },
{ "type": "Feature", "properties": { "OBJECTID": 140, "STOP_ID": 1240, "STOP_NAME": "2301 PARKER/OLTORF", "STOP_TYPE": "Bus Stop", "STATUS": "Active" }, "geometry": { "type": "Point", "coordinates": [ -97.736933770395396, 30.232115998055601 ] } },
{ "type": "Feature", "properties": { "OBJECTID": 141, "STOP_ID": 1242, "STOP_NAME": "2001 BURTON/MARIPOSA", "STOP_TYPE": "Bus Stop", "STATUS": "Closed" }, "geometry": { "type": "Point", "coordinates": [ -97.731924552067298, 30.233411174222901 ] } },
{ "type": "Feature", "properties": { "OBJECTID": 142, "STOP_ID": 1243, "STOP_NAME": "BURTON/VALLEY HILL CIR.", "STOP_TYPE": "Bus Stop", "STATUS": "Active" }, "geometry": { "type": "Point", "coordinates": [ -97.731309394445404, 30.234058584667501 ] } },
{ "type": "Feature", "properties": { "OBJECTID": 143, "STOP_ID": 1244, "STOP_NAME": "1801 BURTON/WOODLAND", "STOP_TYPE": "Bus Stop", "STATUS": "Active" }, "geometry": { "type": "Point", "coordinates": [ -97.728510111019006, 30.235764054754199 ] } },
{ "type": "Feature", "properties": { "OBJECTID": 144, "STOP_ID": 1246, "STOP_NAME": "1000 EAST RIVERSIDE/TRAVIS HEI", "STOP_TYPE": "Bus Stop", "STATUS": "Active" }, "geometry": { "type": "Point", "coordinates": [ -97.738593869205104, 30.2499058890714 ] } },
{ "type": "Feature", "properties": { "OBJECTID": 145, "STOP_ID": 1249, "STOP_NAME": "150 RIVERSIDE/Congress", "STOP_TYPE": "Bus Stop", "STATUS": "Active" }, "geometry": { "type": "Point", "coordinates": [ -97.745459634140403, 30.255867825887901 ] } },
{ "type": "Feature", "properties": { "OBJECTID": 146, "STOP_ID": 1253, "STOP_NAME": "2031 SAN JACINTO/21ST", "STOP_TYPE": "Bus Stop", "STATUS": "Active" }, "geometry": { "type": "Point", "coordinates": [ -97.733910339831596, 30.283104190665998 ] } },
{ "type": "Feature", "properties": { "OBJECTID": 147, "STOP_ID": 1256, "STOP_NAME": "2525 SAN JACINTO/DEAN KEETON", "STOP_TYPE": "Bus Stop", "STATUS": "Active" }, "geometry": { "type": "Point", "coordinates": [ -97.734397246948404, 30.288775527223201 ] } },
{ "type": "Feature", "properties": { "OBJECTID": 148, "STOP_ID": 1257, "STOP_NAME": "Duval/Bellevue", "STOP_TYPE": "Bus Stop", "STATUS": "Active" }, "geometry": { "type": "Point", "coordinates": [ -97.733916753038599, 30.292126824102802 ] } },
{ "type": "Feature", "properties": { "OBJECTID": 149, "STOP_ID": 1258, "STOP_NAME": "DUVAL/32ND", "STOP_TYPE": "Bus Stop", "STATUS": "Active" }, "geometry": { "type": "Point", "coordinates": [ -97.733107910274995, 30.293383599705901 ] } },
{ "type": "Feature", "properties": { "OBJECTID": 150, "STOP_ID": 1259, "STOP_NAME": "Duval/Harris", "STOP_TYPE": "Bus Stop", "STATUS": "Active" }, "geometry": { "type": "Point", "coordinates": [ -97.731489999838402, 30.2959100009504 ] } },
{ "type": "Feature", "properties": { "OBJECTID": 151, "STOP_ID": 1260, "STOP_NAME": "3717 DUVAL/38TH", "STOP_TYPE": "Bus Stop", "STATUS": "Active" }, "geometry": { "type": "Point", "coordinates": [ -97.729831393075301, 30.298514575645001 ] } },
{ "type": "Feature", "properties": { "OBJECTID": 152, "STOP_ID": 1261, "STOP_NAME": "4017 Duval/41St", "STOP_TYPE": "Bus Stop", "STATUS": "Active" }, "geometry": { "type": "Point", "coordinates": [ -97.727604009884203, 30.302139563010599 ] } },
{ "type": "Feature", "properties": { "OBJECTID": 153, "STOP_ID": 1262, "STOP_NAME": "DUVAL/PARK", "STOP_TYPE": "Bus Stop", "STATUS": "Active" }, "geometry": { "type": "Point", "coordinates": [ -97.726357710465507, 30.304131958704499 ] } },
{ "type": "Feature", "properties": { "OBJECTID": 154, "STOP_ID": 1263, "STOP_NAME": "4433 Duval/45Th", "STOP_TYPE": "Bus Stop", "STATUS": "Active" }, "geometry": { "type": "Point", "coordinates": [ -97.724576139840394, 30.3068961493911 ] } },
{ "type": "Feature", "properties": { "OBJECTID": 155, "STOP_ID": 1265, "STOP_NAME": "4803 Duval/48Th Street", "STOP_TYPE": "Bus Stop", "STATUS": "Active" }, "geometry": { "type": "Point", "coordinates": [ -97.721789399907607, 30.311174439281199 ] } },
{ "type": "Feature", "properties": { "OBJECTID": 156, "STOP_ID": 1267, "STOP_NAME": "Duval/Bruning", "STOP_TYPE": "Bus Stop", "STATUS": "Active" }, "geometry": { "type": "Point", "coordinates": [ -97.7196953497658, 30.3144350792493 ] } },
{ "type": "Feature", "properties": { "OBJECTID": 157, "STOP_ID": 1271, "STOP_NAME": "5613 Avenue F/Koenig", "STOP_TYPE": "Bus Stop", "STATUS": "Active" }, "geometry": { "type": "Point", "coordinates": [ -97.718729925403196, 30.3215984518989 ] } },
{ "type": "Feature", "properties": { "OBJECTID": 158, "STOP_ID": 1273, "STOP_NAME": "6902 AIRPORT BLVD/GUADALUPE", "STOP_TYPE": "Bus Stop", "STATUS": "Active" }, "geometry": { "type": "Point", "coordinates": [ -97.717039105024, 30.334358652231501 ] } },
{ "type": "Feature", "properties": { "OBJECTID": 159, "STOP_ID": 1274, "STOP_NAME": "Guadalupe/Kennistson", "STOP_TYPE": "Bus Stop", "STATUS": "Active" }, "geometry": { "type": "Point", "coordinates": [ -97.716376784441806, 30.334693737203299 ] } },
{ "type": "Feature", "properties": { "OBJECTID": 160, "STOP_ID": 1275, "STOP_NAME": "7125 GUADALUPE/ST JOHNS", "STOP_TYPE": "Bus Stop", "STATUS": "Active" }, "geometry": { "type": "Point", "coordinates": [ -97.7144272390385, 30.337671399166599 ] } },
{ "type": "Feature", "properties": { "OBJECTID": 161, "STOP_ID": 1276, "STOP_NAME": "7417 Guadalupe/Crestland", "STOP_TYPE": "Bus Stop", "STATUS": "Active" }, "geometry": { "type": "Point", "coordinates": [ -97.712898300716702, 30.339996028672498 ] } },
{ "type": "Feature", "properties": { "OBJECTID": 162, "STOP_ID": 1278, "STOP_NAME": "7601 Northcrest/Prairie Dell", "STOP_TYPE": "Bus Stop", "STATUS": "Active" }, "geometry": { "type": "Point", "coordinates": [ -97.708420886466499, 30.340632409666199 ] } },
{ "type": "Feature", "properties": { "OBJECTID": 163, "STOP_ID": 1282, "STOP_NAME": "GEORGIAN/RED OAK", "STOP_TYPE": "Bus Stop", "STATUS": "Active" }, "geometry": { "type": "Point", "coordinates": [ -97.702005952191598, 30.349493853978501 ] } },
{ "type": "Feature", "properties": { "OBJECTID": 164, "STOP_ID": 1283, "STOP_NAME": "Georgian/Walnut", "STOP_TYPE": "Bus Stop", "STATUS": "Active" }, "geometry": { "type": "Point", "coordinates": [ -97.700509054487696, 30.3512965443383 ] } },
{ "type": "Feature", "properties": { "OBJECTID": 165, "STOP_ID": 1284, "STOP_NAME": "GEORGIAN/LITTLE WALNUT", "STOP_TYPE": "Bus Stop", "STATUS": "Active" }, "geometry": { "type": "Point", "coordinates": [ -97.698728092672098, 30.353430628911202 ] } },
{ "type": "Feature", "properties": { "OBJECTID": 166, "STOP_ID": 1285, "STOP_NAME": "Georgian/Home Place", "STOP_TYPE": "Bus Stop", "STATUS": "Active" }, "geometry": { "type": "Point", "coordinates": [ -97.696169449440006, 30.356009159376299 ] } },
{ "type": "Feature", "properties": { "OBJECTID": 167, "STOP_ID": 1286, "STOP_NAME": "9013 GEORGIAN/FAWNRIDGE", "STOP_TYPE": "Bus Stop", "STATUS": "Active" }, "geometry": { "type": "Point", "coordinates": [ -97.694808915605194, 30.358121602934698 ] } },
{ "type": "Feature", "properties": { "OBJECTID": 168, "STOP_ID": 1289, "STOP_NAME": "307 Rundberg/North Creek", "STOP_TYPE": "Bus Stop", "STATUS": "Active" }, "geometry": { "type": "Point", "coordinates": [ -97.6920270808548, 30.3600393487011 ] } },
{ "type": "Feature", "properties": { "OBJECTID": 169, "STOP_ID": 1296, "STOP_NAME": "7346 LAMAR/SUGAREE", "STOP_TYPE": "Bus Stop", "STATUS": "Active" }, "geometry": { "type": "Point", "coordinates": [ -97.716820000163906, 30.341269997473901 ] } },
{ "type": "Feature", "properties": { "OBJECTID": 170, "STOP_ID": 1308, "STOP_NAME": "1127 ST JOHNS/GRAND CANYON", "STOP_TYPE": "Bus Stop", "STATUS": "Active" }, "geometry": { "type": "Point", "coordinates": [ -97.694845857056805, 30.328322039820399 ] } },
{ "type": "Feature", "properties": { "OBJECTID": 171, "STOP_ID": 1313, "STOP_NAME": "BERKMAN/US 290 NW CORNER", "STOP_TYPE": "Bus Stop", "STATUS": "Active" }, "geometry": { "type": "Point", "coordinates": [ -97.689240001930202, 30.322300000073898 ] } },
{ "type": "Feature", "properties": { "OBJECTID": 172, "STOP_ID": 1316, "STOP_NAME": "6208 Berkman/Glen Valley", "STOP_TYPE": "Bus Stop", "STATUS": "Active" }, "geometry": { "type": "Point", "coordinates": [ -97.691222737700201, 30.316451187816799 ] } },
{ "type": "Feature", "properties": { "OBJECTID": 173, "STOP_ID": 1318, "STOP_NAME": "5810 BERKMAN/SWEETBRIAR", "STOP_TYPE": "Bus Stop", "STATUS": "Active" }, "geometry": { "type": "Point", "coordinates": [ -97.693665671601195, 30.3123109719096 ] } },
{ "type": "Feature", "properties": { "OBJECTID": 174, "STOP_ID": 1319, "STOP_NAME": "Berkman/Cloverleaf", "STOP_TYPE": "Bus Stop", "STATUS": "Active" }, "geometry": { "type": "Point", "coordinates": [ -97.695538853462494, 30.309341620433901 ] } },
{ "type": "Feature", "properties": { "OBJECTID": 175, "STOP_ID": 1330, "STOP_NAME": "4612 Springdale/Touchstone", "STOP_TYPE": "Bus Stop", "STATUS": "Active" }, "geometry": { "type": "Point", "coordinates": [ -97.680296164558797, 30.289602896923501 ] } },
{ "type": "Feature", "properties": { "OBJECTID": 176, "STOP_ID": 1331, "STOP_NAME": "1811 SPRINGDALE/MARTIN LUTHER", "STOP_TYPE": "Bus Stop", "STATUS": "Active" }, "geometry": { "type": "Point", "coordinates": [ -97.683107314136706, 30.285267567827798 ] } },
{ "type": "Feature", "properties": { "OBJECTID": 177, "STOP_ID": 1332, "STOP_NAME": "Springdale/Oak Cliff", "STOP_TYPE": "Bus Stop", "STATUS": "Closed" }, "geometry": { "type": "Point", "coordinates": [ -97.683281397006098, 30.285005947017002 ] } },
{ "type": "Feature", "properties": { "OBJECTID": 178, "STOP_ID": 1334, "STOP_NAME": "Springdale/Glomar", "STOP_TYPE": "Bus Stop", "STATUS": "Active" }, "geometry": { "type": "Point", "coordinates": [ -97.685305052352206, 30.281879373324301 ] } },
{ "type": "Feature", "properties": { "OBJECTID": 179, "STOP_ID": 1335, "STOP_NAME": "1200 SPRINGDALE/12TH", "STOP_TYPE": "Bus Stop", "STATUS": "Active" }, "geometry": { "type": "Point", "coordinates": [ -97.686964680026605, 30.2792335629719 ] } },
{ "type": "Feature", "properties": { "OBJECTID": 180, "STOP_ID": 1336, "STOP_NAME": "1150 Springdale/Webberville", "STOP_TYPE": "Bus Stop", "STATUS": "Active" }, "geometry": { "type": "Point", "coordinates": [ -97.6884892141085, 30.276735206730699 ] } },
{ "type": "Feature", "properties": { "OBJECTID": 181, "STOP_ID": 1337, "STOP_NAME": "1106 SPRINGDALE/LEDESMA", "STOP_TYPE": "Bus Stop", "STATUS": "Active" }, "geometry": { "type": "Point", "coordinates": [ -97.690090464481599, 30.274303333010099 ] } },
{ "type": "Feature", "properties": { "OBJECTID": 182, "STOP_ID": 1338, "STOP_NAME": "1050 Springdale/Prock", "STOP_TYPE": "Bus Stop", "STATUS": "Active" }, "geometry": { "type": "Point", "coordinates": [ -97.692224738932495, 30.270901133711401 ] } },
{ "type": "Feature", "properties": { "OBJECTID": 183, "STOP_ID": 1339, "STOP_NAME": "1018 SPRINGDALE/GOODWIN", "STOP_TYPE": "Bus Stop", "STATUS": "Active" }, "geometry": { "type": "Point", "coordinates": [ -97.694349269082295, 30.267579063603002 ] } },
{ "type": "Feature", "properties": { "OBJECTID": 184, "STOP_ID": 1341, "STOP_NAME": "3600 GOVALLE/GUNTER", "STOP_TYPE": "Bus Stop", "STATUS": "Active" }, "geometry": { "type": "Point", "coordinates": [ -97.6993514098845, 30.265075964905101 ] } },
{ "type": "Feature", "properties": { "OBJECTID": 185, "STOP_ID": 1342, "STOP_NAME": "3200 Govalle/Tillery", "STOP_TYPE": "Bus Stop", "STATUS": "Active" }, "geometry": { "type": "Point", "coordinates": [ -97.702019998436796, 30.2660199985106 ] } },
{ "type": "Feature", "properties": { "OBJECTID": 186, "STOP_ID": 1346, "STOP_NAME": "850 Pleasant Valley/Webbervill", "STOP_TYPE": "Bus Stop", "STATUS": "Active" }, "geometry": { "type": "Point", "coordinates": [ -97.708824640755793, 30.265169664066899 ] } },
{ "type": "Feature", "properties": { "OBJECTID": 187, "STOP_ID": 1347, "STOP_NAME": "820 PLEASANT VALLEY/LYONS", "STOP_TYPE": "Bus Stop", "STATUS": "Active" }, "geometry": { "type": "Point", "coordinates": [ -97.708344276522098, 30.263657874782002 ] } },
{ "type": "Feature", "properties": { "OBJECTID": 188, "STOP_ID": 1349, "STOP_NAME": "7th Street SB (Pleasant Valley", "STOP_TYPE": "Rapid Station", "STATUS": "Active" }, "geometry": { "type": "Point", "coordinates": [ -97.709735544214496, 30.259748350423202 ] } },
{ "type": "Feature", "properties": { "OBJECTID": 189, "STOP_ID": 1353, "STOP_NAME": "Roy G Guerrero SB (Pleasant Va", "STOP_TYPE": "Bus Stop", "STATUS": "Active" }, "geometry": { "type": "Point", "coordinates": [ -97.717511311144506, 30.242199660830298 ] } },
{ "type": "Feature", "properties": { "OBJECTID": 190, "STOP_ID": 1356, "STOP_NAME": "Oltorf East SB (Oltorf/Pleasan", "STOP_TYPE": "Bus Stop", "STATUS": "Active" }, "geometry": { "type": "Point", "coordinates": [ -97.728278765614704, 30.227842835862401 ] } },
{ "type": "Feature", "properties": { "OBJECTID": 191, "STOP_ID": 1358, "STOP_NAME": "2030 Oltorf/Willow Creek", "STOP_TYPE": "Bus Stop", "STATUS": "Active" }, "geometry": { "type": "Point", "coordinates": [ -97.7317492249597, 30.230209593662401 ] } },
{ "type": "Feature", "properties": { "OBJECTID": 192, "STOP_ID": 1359, "STOP_NAME": "2201 BURTON/OLTORF", "STOP_TYPE": "Bus Stop", "STATUS": "Active" }, "geometry": { "type": "Point", "coordinates": [ -97.733550433376095, 30.231208350803801 ] } },
{ "type": "Feature", "properties": { "OBJECTID": 193, "STOP_ID": 1361, "STOP_NAME": "Burton/Riverside", "STOP_TYPE": "Bus Stop", "STATUS": "Active" }, "geometry": { "type": "Point", "coordinates": [ -97.727578485764894, 30.239196364784 ] } },
{ "type": "Feature", "properties": { "OBJECTID": 194, "STOP_ID": 1363, "STOP_NAME": "Elmont/Pleasant Valley/1", "STOP_TYPE": "Bus Stop", "STATUS": "Active" }, "geometry": { "type": "Point", "coordinates": [ -97.721485593716693, 30.239624220233502 ] } },
{ "type": "Feature", "properties": { "OBJECTID": 195, "STOP_ID": 1364, "STOP_NAME": "Roy G Guerrero NB (Pleasant Va", "STOP_TYPE": "Rapid Station", "STATUS": "Active" }, "geometry": { "type": "Point", "coordinates": [ -97.717283773614398, 30.242204725218201 ] } },
{ "type": "Feature", "properties": { "OBJECTID": 196, "STOP_ID": 1365, "STOP_NAME": "517 Pleasant Valley (Krieg Fie", "STOP_TYPE": "Bus Stop", "STATUS": "Active" }, "geometry": { "type": "Point", "coordinates": [ -97.714690372821906, 30.246283691713401 ] } },
{ "type": "Feature", "properties": { "OBJECTID": 197, "STOP_ID": 1368, "STOP_NAME": "501 PLEASANT VALLEY/5TH", "STOP_TYPE": "Bus Stop", "STATUS": "Active" }, "geometry": { "type": "Point", "coordinates": [ -97.710595605863702, 30.257442547847798 ] } },
{ "type": "Feature", "properties": { "OBJECTID": 198, "STOP_ID": 1369, "STOP_NAME": "7th Street NB (Pleasant Valley", "STOP_TYPE": "Rapid Station", "STATUS": "Active" }, "geometry": { "type": "Point", "coordinates": [ -97.709481162614694, 30.259860071718201 ] } },
{ "type": "Feature", "properties": { "OBJECTID": 199, "STOP_ID": 1372, "STOP_NAME": "819 PLEASANT VALLEY/LYONS", "STOP_TYPE": "Bus Stop", "STATUS": "Active" }, "geometry": { "type": "Point", "coordinates": [ -97.708225989962003, 30.263547793111901 ] } },
{ "type": "Feature", "properties": { "OBJECTID": 200, "STOP_ID": 1373, "STOP_NAME": "851 Pleasant Valley/Webbervill", "STOP_TYPE": "Bus Stop", "STATUS": "Active" }, "geometry": { "type": "Point", "coordinates": [ -97.708781472617105, 30.265299105002299 ] } },
{ "type": "Feature", "properties": { "OBJECTID": 201, "STOP_ID": 1377, "STOP_NAME": "3601 Govalle/Gunter", "STOP_TYPE": "Bus Stop", "STATUS": "Active" }, "geometry": { "type": "Point", "coordinates": [ -97.698463381630006, 30.264616319099598 ] } },
{ "type": "Feature", "properties": { "OBJECTID": 202, "STOP_ID": 5305, "STOP_NAME": "3301 Wells Branch/Howard", "STOP_TYPE": "Bus Stop", "STATUS": "Active" }, "geometry": { "type": "Point", "coordinates": [ -97.695268005261696, 30.440103771649898 ] } },
{ "type": "Feature", "properties": { "OBJECTID": 203, "STOP_ID": 5302, "STOP_NAME": "TECH RIDGE BAY F", "STOP_TYPE": "Bus Bay", "STATUS": "Active" }, "geometry": { "type": "Point", "coordinates": [ -97.669069648063001, 30.4183249038391 ] } },
{ "type": "Feature", "properties": { "OBJECTID": 204, "STOP_ID": 5279, "STOP_NAME": "TECH RIDGE BAY J", "STOP_TYPE": "Bus Bay", "STATUS": "Active" }, "geometry": { "type": "Point", "coordinates": [ -97.667996190828305, 30.418160858430198 ] } },
{ "type": "Feature", "properties": { "OBJECTID": 205, "STOP_ID": 5191, "STOP_NAME": "MONTOPOLIS/CADDIE", "STOP_TYPE": "Bus Stop", "STATUS": "Active" }, "geometry": { "type": "Point", "coordinates": [ -97.702006975765897, 30.227349887846199 ] } },
{ "type": "Feature", "properties": { "OBJECTID": 206, "STOP_ID": 243, "STOP_NAME": "RIO GRANDE/15TH", "STOP_TYPE": "Bus Stop", "STATUS": "Active" }, "geometry": { "type": "Point", "coordinates": [ -97.746338736506203, 30.278965605115701 ] } },
{ "type": "Feature", "properties": { "OBJECTID": 207, "STOP_ID": 465, "STOP_NAME": "8912 LAMAR/PAYTON GIN", "STOP_TYPE": "Bus Stop", "STATUS": "Active" }, "geometry": { "type": "Point", "coordinates": [ -97.700139999100898, 30.3578299985681 ] } },
{ "type": "Feature", "properties": { "OBJECTID": 208, "STOP_ID": 467, "STOP_NAME": "FAIRFIELD RAPID  STATION (SB)", "STOP_TYPE": "Bus Stop", "STATUS": "Active" }, "geometry": { "type": "Point", "coordinates": [ -97.703127895772496, 30.3552961105324 ] } },
{ "type": "Feature", "properties": { "OBJECTID": 209, "STOP_ID": 468, "STOP_NAME": "LAMAR/THURMOND", "STOP_TYPE": "Bus Stop", "STATUS": "Active" }, "geometry": { "type": "Point", "coordinates": [ -97.706082032365103, 30.3531391201182 ] } },
{ "type": "Feature", "properties": { "OBJECTID": 210, "STOP_ID": 471, "STOP_NAME": "7720 LAMAR/STOBAUGH", "STOP_TYPE": "Bus Stop", "STATUS": "Active" }, "geometry": { "type": "Point", "coordinates": [ -97.713965548309602, 30.3460438322371 ] } },
{ "type": "Feature", "properties": { "OBJECTID": 211, "STOP_ID": 472, "STOP_NAME": "7520 LAMAR/MORROW", "STOP_TYPE": "Bus Stop", "STATUS": "Active" }, "geometry": { "type": "Point", "coordinates": [ -97.715300602108897, 30.343739077860501 ] } },
{ "type": "Feature", "properties": { "OBJECTID": 212, "STOP_ID": 474, "STOP_NAME": "6814 LAMAR/JUSTIN", "STOP_TYPE": "Bus Stop", "STATUS": "Active" }, "geometry": { "type": "Point", "coordinates": [ -97.720005551650502, 30.336203827818601 ] } },
{ "type": "Feature", "properties": { "OBJECTID": 213, "STOP_ID": 475, "STOP_NAME": "6600 LAMAR/BRENTWOOD", "STOP_TYPE": "Bus Stop", "STATUS": "Active" }, "geometry": { "type": "Point", "coordinates": [ -97.721313713496102, 30.334162540145599 ] } },
{ "type": "Feature", "properties": { "OBJECTID": 214, "STOP_ID": 480, "STOP_NAME": "5528 LAMAR/KOENIG", "STOP_TYPE": "Bus Stop", "STATUS": "Active" }, "geometry": { "type": "Point", "coordinates": [ -97.727573028804798, 30.324188489762498 ] } },
{ "type": "Feature", "properties": { "OBJECTID": 215, "STOP_ID": 483, "STOP_NAME": "5106 LAMAR/51ST", "STOP_TYPE": "Bus Stop", "STATUS": "Active" }, "geometry": { "type": "Point", "coordinates": [ -97.730809413597697, 30.319053085616201 ] } },
{ "type": "Feature", "properties": { "OBJECTID": 216, "STOP_ID": 484, "STOP_NAME": "TRIANGLE STATION (SB)", "STOP_TYPE": "Rapid Station", "STATUS": "Active" }, "geometry": { "type": "Point", "coordinates": [ -97.732525676131004, 30.3145859050722 ] } },
{ "type": "Feature", "properties": { "OBJECTID": 217, "STOP_ID": 485, "STOP_NAME": "4500 GUADALUPE/45TH", "STOP_TYPE": "Bus Stop", "STATUS": "Active" }, "geometry": { "type": "Point", "coordinates": [ -97.733008933906603, 30.311103324513201 ] } },
{ "type": "Feature", "properties": { "OBJECTID": 218, "STOP_ID": 486, "STOP_NAME": "GUADALUPE/43RD STREET", "STOP_TYPE": "Bus Stop", "STATUS": "Active" }, "geometry": { "type": "Point", "coordinates": [ -97.734406494146697, 30.308828482360301 ] } },
{ "type": "Feature", "properties": { "OBJECTID": 219, "STOP_ID": 487, "STOP_NAME": "GUADALUPE/41ST STREET", "STOP_TYPE": "Bus Stop", "STATUS": "Active" }, "geometry": { "type": "Point", "coordinates": [ -97.735773630066802, 30.306695149249201 ] } },
{ "type": "Feature", "properties": { "OBJECTID": 220, "STOP_ID": 489, "STOP_NAME": "GUADALUPE/MAIDEN", "STOP_TYPE": "Bus Stop", "STATUS": "Active" }, "geometry": { "type": "Point", "coordinates": [ -97.738974393855401, 30.301662657490802 ] } },
{ "type": "Feature", "properties": { "OBJECTID": 221, "STOP_ID": 490, "STOP_NAME": "GUADALUPE/34TH STREET", "STOP_TYPE": "Bus Stop", "STATUS": "Active" }, "geometry": { "type": "Point", "coordinates": [ -97.739713949049701, 30.300465005890299 ] } },
{ "type": "Feature", "properties": { "OBJECTID": 222, "STOP_ID": 494, "STOP_NAME": "GUADALUPE/27TH STREET", "STOP_TYPE": "Bus Stop", "STATUS": "Active" }, "geometry": { "type": "Point", "coordinates": [ -97.741315989921404, 30.292195460055201 ] } },
{ "type": "Feature", "properties": { "OBJECTID": 223, "STOP_ID": 497, "STOP_NAME": "UT WEST MALL STATION (SB)", "STOP_TYPE": "Rapid Station", "STATUS": "Active" }, "geometry": { "type": "Point", "coordinates": [ -97.741771121225696, 30.286230628049001 ] } },
{ "type": "Feature", "properties": { "OBJECTID": 224, "STOP_ID": 498, "STOP_NAME": "Guadalupe/W. 21St Street", "STOP_TYPE": "Bus Stop", "STATUS": "Active" }, "geometry": { "type": "Point", "coordinates": [ -97.742081293946399, 30.2833840320571 ] } },
{ "type": "Feature", "properties": { "OBJECTID": 225, "STOP_ID": 501, "STOP_NAME": "GUADALUPE/16TH STREET", "STOP_TYPE": "Bus Stop", "STATUS": "Active" }, "geometry": { "type": "Point", "coordinates": [ -97.742707519743504, 30.278962155418501 ] } },
{ "type": "Feature", "properties": { "OBJECTID": 226, "STOP_ID": 517, "STOP_NAME": "612 CONGRESS/RIVERSIDE", "STOP_TYPE": "Bus Stop", "STATUS": "Active" }, "geometry": { "type": "Point", "coordinates": [ -97.747685376451997, 30.255385307148401 ] } },
{ "type": "Feature", "properties": { "OBJECTID": 227, "STOP_ID": 522, "STOP_NAME": "2020 CONGRESS/CROCKETT", "STOP_TYPE": "Bus Stop", "STATUS": "Active" }, "geometry": { "type": "Point", "coordinates": [ -97.752262556948594, 30.243057637010899 ] } },
{ "type": "Feature", "properties": { "OBJECTID": 228, "STOP_ID": 526, "STOP_NAME": "2622 Congress/Cumberland", "STOP_TYPE": "Bus Stop", "STATUS": "Active" }, "geometry": { "type": "Point", "coordinates": [ -97.756373735580794, 30.235694822149501 ] } },
{ "type": "Feature", "properties": { "OBJECTID": 229, "STOP_ID": 527, "STOP_NAME": "2918 CONGRESS/LA VISTA", "STOP_TYPE": "Bus Stop", "STATUS": "Active" }, "geometry": { "type": "Point", "coordinates": [ -97.758530002238302, 30.232589998555099 ] } },
{ "type": "Feature", "properties": { "OBJECTID": 230, "STOP_ID": 529, "STOP_NAME": "CONGRESS/PICKLE", "STOP_TYPE": "Bus Stop", "STATUS": "Active" }, "geometry": { "type": "Point", "coordinates": [ -97.761934551169205, 30.226895554998599 ] } },
{ "type": "Feature", "properties": { "OBJECTID": 231, "STOP_ID": 531, "STOP_NAME": "4210 Congress/Radam", "STOP_TYPE": "Bus Stop", "STATUS": "Active" }, "geometry": { "type": "Point", "coordinates": [ -97.765411166411198, 30.2207627088601 ] } },
{ "type": "Feature", "properties": { "OBJECTID": 232, "STOP_ID": 543, "STOP_NAME": "4722 CONGRESS/SHERATON", "STOP_TYPE": "Bus Stop", "STATUS": "Active" }, "geometry": { "type": "Point", "coordinates": [ -97.769232024128002, 30.214748474162 ] } },
{ "type": "Feature", "properties": { "OBJECTID": 233, "STOP_ID": 545, "STOP_NAME": "5300 CONGRESS/RAMBLE", "STOP_TYPE": "Bus Stop", "STATUS": "Active" }, "geometry": { "type": "Point", "coordinates": [ -97.7731081108236, 30.208685049198799 ] } },
{ "type": "Feature", "properties": { "OBJECTID": 234, "STOP_ID": 546, "STOP_NAME": "Stassney SB Rapid", "STOP_TYPE": "Rapid Station", "STATUS": "Active" }, "geometry": { "type": "Point", "coordinates": [ -97.775063525896798, 30.204553017450301 ] } },
{ "type": "Feature", "properties": { "OBJECTID": 235, "STOP_ID": 550, "STOP_NAME": "115 WILLIAM CANNON/CIRCLE S", "STOP_TYPE": "Bus Stop", "STATUS": "Active" }, "geometry": { "type": "Point", "coordinates": [ -97.777840805131802, 30.192663741318999 ] } },
{ "type": "Feature", "properties": { "OBJECTID": 236, "STOP_ID": 551, "STOP_NAME": "409 WILLIAM CANNON/CIRCLE S", "STOP_TYPE": "Bus Stop", "STATUS": "Active" }, "geometry": { "type": "Point", "coordinates": [ -97.776036824710403, 30.192082255488899 ] } },
{ "type": "Feature", "properties": { "OBJECTID": 237, "STOP_ID": 552, "STOP_NAME": "601 WILLIAM CANNON/CIRCLE S", "STOP_TYPE": "Bus Stop", "STATUS": "Active" }, "geometry": { "type": "Point", "coordinates": [ -97.773529782367106, 30.191386565658998 ] } },
{ "type": "Feature", "properties": { "OBJECTID": 238, "STOP_ID": 553, "STOP_NAME": "Nelms/Bluff Springs", "STOP_TYPE": "Bus Stop", "STATUS": "Active" }, "geometry": { "type": "Point", "coordinates": [ -97.765326535291507, 30.192738260471501 ] } },
{ "type": "Feature", "properties": { "OBJECTID": 239, "STOP_ID": 554, "STOP_NAME": "BLUFF SPRINGS/WILLIAM CANNON", "STOP_TYPE": "Bus Stop", "STATUS": "Active" }, "geometry": { "type": "Point", "coordinates": [ -97.767879228887907, 30.189427246518999 ] } },
{ "type": "Feature", "properties": { "OBJECTID": 240, "STOP_ID": 555, "STOP_NAME": "412 WILLIAM CANNON/NORTH BLUFF", "STOP_TYPE": "Bus Stop", "STATUS": "Active" }, "geometry": { "type": "Point", "coordinates": [ -97.774138533350097, 30.1917727781418 ] } },
{ "type": "Feature", "properties": { "OBJECTID": 241, "STOP_ID": 556, "STOP_NAME": "110 WILLIAM CANNON/CIRCLE S", "STOP_TYPE": "Bus Stop", "STATUS": "Active" }, "geometry": { "type": "Point", "coordinates": [ -97.777954509126999, 30.192970891614401 ] } },
{ "type": "Feature", "properties": { "OBJECTID": 242, "STOP_ID": 558, "STOP_NAME": "6319 Congress/Circle S", "STOP_TYPE": "Bus Stop", "STATUS": "Active" }, "geometry": { "type": "Point", "coordinates": [ -97.776908027367199, 30.1973918682834 ] } },
{ "type": "Feature", "properties": { "OBJECTID": 243, "STOP_ID": 559, "STOP_NAME": "LITTLE TEXAS STATION (NB)", "STOP_TYPE": "Rapid Station", "STATUS": "Active" }, "geometry": { "type": "Point", "coordinates": [ -97.7755147657614, 30.202145330383502 ] } },
{ "type": "Feature", "properties": { "OBJECTID": 244, "STOP_ID": 560, "STOP_NAME": "5405 CONGRESS/MOCKINGBIRD", "STOP_TYPE": "Bus Stop", "STATUS": "Active" }, "geometry": { "type": "Point", "coordinates": [ -97.773732899885502, 30.207107329029899 ] } },
{ "type": "Feature", "properties": { "OBJECTID": 245, "STOP_ID": 568, "STOP_NAME": "CONGRESS/ALPINE", "STOP_TYPE": "Bus Stop", "STATUS": "Active" }, "geometry": { "type": "Point", "coordinates": [ -97.760942960127494, 30.228247725198798 ] } },
{ "type": "Feature", "properties": { "OBJECTID": 246, "STOP_ID": 571, "STOP_NAME": "2705 CONGRESS/CUMBERLAND", "STOP_TYPE": "Bus Stop", "STATUS": "Active" }, "geometry": { "type": "Point", "coordinates": [ -97.756329930669295, 30.235346931930401 ] } },
{ "type": "Feature", "properties": { "OBJECTID": 247, "STOP_ID": 573, "STOP_NAME": "2203 Congress/Live Oak", "STOP_TYPE": "Bus Stop", "STATUS": "Active" }, "geometry": { "type": "Point", "coordinates": [ -97.7524226174056, 30.2416893732719 ] } },
{ "type": "Feature", "properties": { "OBJECTID": 248, "STOP_ID": 574, "STOP_NAME": "1901 CONGRESS/MARY", "STOP_TYPE": "Bus Stop", "STATUS": "Active" }, "geometry": { "type": "Point", "coordinates": [ -97.751211892076995, 30.245024020829199 ] } },
{ "type": "Feature", "properties": { "OBJECTID": 249, "STOP_ID": 576, "STOP_NAME": "CONGRESS/THE CIRCLE", "STOP_TYPE": "Bus Stop", "STATUS": "Active" }, "geometry": { "type": "Point", "coordinates": [ -97.748789173961399, 30.251531443511599 ] } },
{ "type": "Feature", "properties": { "OBJECTID": 250, "STOP_ID": 577, "STOP_NAME": "611 CONGRESS/ACADEMY", "STOP_TYPE": "Bus Stop", "STATUS": "Active" }, "geometry": { "type": "Point", "coordinates": [ -97.747389515873493, 30.255340459289901 ] } },
{ "type": "Feature", "properties": { "OBJECTID": 251, "STOP_ID": 590, "STOP_NAME": "Lavaca/12Th", "STOP_TYPE": "Bus Stop", "STATUS": "Active" }, "geometry": { "type": "Point", "coordinates": [ -97.742995182707503, 30.2744079179732 ] } },
{ "type": "Feature", "properties": { "OBJECTID": 252, "STOP_ID": 591, "STOP_NAME": "CAPITOL STATION (NB)", "STOP_TYPE": "Rapid Station", "STATUS": "Active" }, "geometry": { "type": "Point", "coordinates": [ -97.742557602697602, 30.2755866852957 ] } },
{ "type": "Feature", "properties": { "OBJECTID": 253, "STOP_ID": 593, "STOP_NAME": "LAVACA/15TH", "STOP_TYPE": "Bus Stop", "STATUS": "Active" }, "geometry": { "type": "Point", "coordinates": [ -97.741894149361798, 30.277383219261299 ] } },
{ "type": "Feature", "properties": { "OBJECTID": 254, "STOP_ID": 603, "STOP_NAME": "31St Street Rapid  Station (NB", "STOP_TYPE": "Bus Stop", "STATUS": "Active" }, "geometry": { "type": "Point", "coordinates": [ -97.7411673639252, 30.297766558977798 ] } },
{ "type": "Feature", "properties": { "OBJECTID": 255, "STOP_ID": 604, "STOP_NAME": "GUADALUPE/34TH", "STOP_TYPE": "Bus Stop", "STATUS": "Active" }, "geometry": { "type": "Point", "coordinates": [ -97.739282128327204, 30.3007740728019 ] } },
{ "type": "Feature", "properties": { "OBJECTID": 256, "STOP_ID": 605, "STOP_NAME": "Guadalupe/38Th", "STOP_TYPE": "Bus Stop", "STATUS": "Active" }, "geometry": { "type": "Point", "coordinates": [ -97.738160859156594, 30.3025406119934 ] } },
{ "type": "Feature", "properties": { "OBJECTID": 257, "STOP_ID": 606, "STOP_NAME": "HYDE PARK STATION (NB)", "STOP_TYPE": "Rapid Station", "STATUS": "Active" }, "geometry": { "type": "Point", "coordinates": [ -97.736957364491502, 30.304421656452799 ] } },
{ "type": "Feature", "properties": { "OBJECTID": 258, "STOP_ID": 607, "STOP_NAME": "GUADALUPE/41ST", "STOP_TYPE": "Bus Stop", "STATUS": "Active" }, "geometry": { "type": "Point", "coordinates": [ -97.735784807970305, 30.306259470972801 ] } },
{ "type": "Feature", "properties": { "OBJECTID": 259, "STOP_ID": 608, "STOP_NAME": "GUADALUPE/43RD", "STOP_TYPE": "Bus Stop", "STATUS": "Active" }, "geometry": { "type": "Point", "coordinates": [ -97.734365872143499, 30.3084706846324 ] } },
{ "type": "Feature", "properties": { "OBJECTID": 260, "STOP_ID": 609, "STOP_NAME": "4413 GUADALUPE/45TH", "STOP_TYPE": "Bus Stop", "STATUS": "Active" }, "geometry": { "type": "Point", "coordinates": [ -97.732961582202904, 30.310684196220802 ] } },
{ "type": "Feature", "properties": { "OBJECTID": 261, "STOP_ID": 610, "STOP_NAME": "TRIANGLE STATION (NB)", "STOP_TYPE": "Rapid Station", "STATUS": "Active" }, "geometry": { "type": "Point", "coordinates": [ -97.7322656782205, 30.314795500165999 ] } },
{ "type": "Feature", "properties": { "OBJECTID": 262, "STOP_ID": 611, "STOP_NAME": "5007 LAMAR/51ST", "STOP_TYPE": "Bus Stop", "STATUS": "Active" }, "geometry": { "type": "Point", "coordinates": [ -97.7309084479799, 30.318461214004099 ] } },
{ "type": "Feature", "properties": { "OBJECTID": 263, "STOP_ID": 612, "STOP_NAME": "NORTH LOOP EAST RAPID STATION", "STOP_TYPE": "Bus Stop", "STATUS": "Active" }, "geometry": { "type": "Point", "coordinates": [ -97.729113564849698, 30.321317460163701 ] } },
{ "type": "Feature", "properties": { "OBJECTID": 264, "STOP_ID": 613, "STOP_NAME": "5419 Lamar/Nelray", "STOP_TYPE": "Bus Stop", "STATUS": "Active" }, "geometry": { "type": "Point", "coordinates": [ -97.728210213293806, 30.322780347562698 ] } },
{ "type": "Feature", "properties": { "OBJECTID": 265, "STOP_ID": 614, "STOP_NAME": "5555 LAMAR/NELRAY", "STOP_TYPE": "Bus Stop", "STATUS": "Active" }, "geometry": { "type": "Point", "coordinates": [ -97.727339095965704, 30.3241631523628 ] } },
{ "type": "Feature", "properties": { "OBJECTID": 266, "STOP_ID": 617, "STOP_NAME": "6201 LAMAR/DENSON", "STOP_TYPE": "Bus Stop", "STATUS": "Active" }, "geometry": { "type": "Point", "coordinates": [ -97.723541464023398, 30.3301831233765 ] } },
{ "type": "Feature", "properties": { "OBJECTID": 267, "STOP_ID": 618, "STOP_NAME": "6541 Lamar/Brentwood", "STOP_TYPE": "Bus Stop", "STATUS": "Active" }, "geometry": { "type": "Point", "coordinates": [ -97.721200068529598, 30.333863814147001 ] } },
{ "type": "Feature", "properties": { "OBJECTID": 268, "STOP_ID": 620, "STOP_NAME": "7240 Lamar/St Johns", "STOP_TYPE": "Bus Stop", "STATUS": "Active" }, "geometry": { "type": "Point", "coordinates": [ -97.717689779409795, 30.339955582464999 ] } },
{ "type": "Feature", "properties": { "OBJECTID": 269, "STOP_ID": 622, "STOP_NAME": "7545 LAMAR/MORROW", "STOP_TYPE": "Bus Stop", "STATUS": "Active" }, "geometry": { "type": "Point", "coordinates": [ -97.714920000952404, 30.3438499983599 ] } },
{ "type": "Feature", "properties": { "OBJECTID": 270, "STOP_ID": 623, "STOP_NAME": "8071 Lamar/Research", "STOP_TYPE": "Bus Stop", "STATUS": "Active" }, "geometry": { "type": "Point", "coordinates": [ -97.711557952206107, 30.348283481559999 ] } },
{ "type": "Feature", "properties": { "OBJECTID": 271, "STOP_ID": 627, "STOP_NAME": "8745 LAMAR/DEEN", "STOP_TYPE": "Bus Stop", "STATUS": "Active" }, "geometry": { "type": "Point", "coordinates": [ -97.701239667900893, 30.356404865355401 ] } },
{ "type": "Feature", "properties": { "OBJECTID": 272, "STOP_ID": 628, "STOP_NAME": "8911 Lamar/Carpenter", "STOP_TYPE": "Bus Stop", "STATUS": "Active" }, "geometry": { "type": "Point", "coordinates": [ -97.699627164858697, 30.358137940509199 ] } },
{ "type": "Feature", "properties": { "OBJECTID": 273, "STOP_ID": 634, "STOP_NAME": "Oak Springs SB (Oak Springs/Ai", "STOP_TYPE": "Rapid Station", "STATUS": "Active" }, "geometry": { "type": "Point", "coordinates": [ -97.698350000985101, 30.273609999696301 ] } },
{ "type": "Feature", "properties": { "OBJECTID": 274, "STOP_ID": 635, "STOP_NAME": "OAK SPRINGS/RIDGEWAY", "STOP_TYPE": "Bus Stop", "STATUS": "Active" }, "geometry": { "type": "Point", "coordinates": [ -97.704567927031107, 30.272555826305702 ] } },
{ "type": "Feature", "properties": { "OBJECTID": 275, "STOP_ID": 637, "STOP_NAME": "2420 ROSEWOOD/BEDFORD", "STOP_TYPE": "Bus Stop", "STATUS": "Active" }, "geometry": { "type": "Point", "coordinates": [ -97.708296284662097, 30.272319455683 ] } },
{ "type": "Feature", "properties": { "OBJECTID": 276, "STOP_ID": 638, "STOP_NAME": "2370 Rosewood/Hargrave", "STOP_TYPE": "Bus Stop", "STATUS": "Active" }, "geometry": { "type": "Point", "coordinates": [ -97.710648863841001, 30.271236332541601 ] } },
{ "type": "Feature", "properties": { "OBJECTID": 277, "STOP_ID": 657, "STOP_NAME": "907 11TH/BRANCH", "STOP_TYPE": "Bus Stop", "STATUS": "Active" }, "geometry": { "type": "Point", "coordinates": [ -97.731241029477602, 30.269860484341901 ] } },
{ "type": "Feature", "properties": { "OBJECTID": 278, "STOP_ID": 658, "STOP_NAME": "11TH/WALLER", "STOP_TYPE": "Bus Stop", "STATUS": "Active" }, "geometry": { "type": "Point", "coordinates": [ -97.729680990458505, 30.2692707017078 ] } },
{ "type": "Feature", "properties": { "OBJECTID": 279, "STOP_ID": 659, "STOP_NAME": "1201 11Th/Lydia", "STOP_TYPE": "Bus Stop", "STATUS": "Active" }, "geometry": { "type": "Point", "coordinates": [ -97.727819505013599, 30.268613251180199 ] } },
{ "type": "Feature", "properties": { "OBJECTID": 280, "STOP_ID": 661, "STOP_NAME": "1319 ROSEWOOD/ANGELINA", "STOP_TYPE": "Bus Stop", "STATUS": "Active" }, "geometry": { "type": "Point", "coordinates": [ -97.724460001240004, 30.268780000051301 ] } },
{ "type": "Feature", "properties": { "OBJECTID": 281, "STOP_ID": 663, "STOP_NAME": "1909 Rosewood/Chicon", "STOP_TYPE": "Bus Stop", "STATUS": "Active" }, "geometry": { "type": "Point", "coordinates": [ -97.718600680269503, 30.269696169615901 ] } },
{ "type": "Feature", "properties": { "OBJECTID": 282, "STOP_ID": 665, "STOP_NAME": "2399 ROSEWOOD/HARGRAVE", "STOP_TYPE": "Bus Stop", "STATUS": "Active" }, "geometry": { "type": "Point", "coordinates": [ -97.710539404122798, 30.271106691394898 ] } },
{ "type": "Feature", "properties": { "OBJECTID": 283, "STOP_ID": 666, "STOP_NAME": "ROSEWOOD/WEBBERVILLE", "STOP_TYPE": "Bus Stop", "STATUS": "Active" }, "geometry": { "type": "Point", "coordinates": [ -97.705143726790496, 30.2723573542944 ] } },
{ "type": "Feature", "properties": { "OBJECTID": 284, "STOP_ID": 667, "STOP_NAME": "2807 Oak Springs/Webberville", "STOP_TYPE": "Bus Stop", "STATUS": "Active" }, "geometry": { "type": "Point", "coordinates": [ -97.702320889111604, 30.272787424170001 ] } },
{ "type": "Feature", "properties": { "OBJECTID": 285, "STOP_ID": 668, "STOP_NAME": "3201 OAK SPRINGS/AIRPORT", "STOP_TYPE": "Bus Stop", "STATUS": "Active" }, "geometry": { "type": "Point", "coordinates": [ -97.698127233643504, 30.273483769164699 ] } },
{ "type": "Feature", "properties": { "OBJECTID": 286, "STOP_ID": 669, "STOP_NAME": "OAK SPRINGS/SPRINGDALE", "STOP_TYPE": "Bus Stop", "STATUS": "Active" }, "geometry": { "type": "Point", "coordinates": [ -97.691295790032697, 30.273533659223901 ] } },
{ "type": "Feature", "properties": { "OBJECTID": 287, "STOP_ID": 674, "STOP_NAME": "NORTHCROSS TRANSFER CENTER", "STOP_TYPE": "Bus Stop", "STATUS": "Active" }, "geometry": { "type": "Point", "coordinates": [ -97.735920001343601, 30.3536099994358 ] } },
{ "type": "Feature", "properties": { "OBJECTID": 288, "STOP_ID": 675, "STOP_NAME": "7500 Burnet/Richcreek", "STOP_TYPE": "Bus Stop", "STATUS": "Active" }, "geometry": { "type": "Point", "coordinates": [ -97.734361844012895, 30.350659545012999 ] } },
{ "type": "Feature", "properties": { "OBJECTID": 289, "STOP_ID": 678, "STOP_NAME": "BURNET/TWIN OAKS DR.", "STOP_TYPE": "Bus Stop", "STATUS": "Active" }, "geometry": { "type": "Point", "coordinates": [ -97.738671230311795, 30.342692909397499 ] } },
{ "type": "Feature", "properties": { "OBJECTID": 290, "STOP_ID": 684, "STOP_NAME": "North Loop Station (SB)", "STOP_TYPE": "Rapid Station", "STATUS": "Active" }, "geometry": { "type": "Point", "coordinates": [ -97.739681460193594, 30.324999084725601 ] } },
{ "type": "Feature", "properties": { "OBJECTID": 291, "STOP_ID": 685, "STOP_NAME": "BURNET/HANCOCK", "STOP_TYPE": "Bus Stop", "STATUS": "Active" }, "geometry": { "type": "Point", "coordinates": [ -97.739435837076101, 30.3222127261126 ] } },
{ "type": "Feature", "properties": { "OBJECTID": 292, "STOP_ID": 686, "STOP_NAME": "BURNET/W. 49TH", "STOP_TYPE": "Bus Stop", "STATUS": "Active" }, "geometry": { "type": "Point", "coordinates": [ -97.739313457143794, 30.3203326333721 ] } },
{ "type": "Feature", "properties": { "OBJECTID": 293, "STOP_ID": 688, "STOP_NAME": "Burnet/W. 45Th", "STOP_TYPE": "Bus Stop", "STATUS": "Active" }, "geometry": { "type": "Point", "coordinates": [ -97.741621463384007, 30.315528065677402 ] } },
{ "type": "Feature", "properties": { "OBJECTID": 294, "STOP_ID": 689, "STOP_NAME": "4214 MEDICAL PARKWAY/43RD", "STOP_TYPE": "Bus Stop", "STATUS": "Active" }, "geometry": { "type": "Point", "coordinates": [ -97.742370998878201, 30.3124742995603 ] } },
{ "type": "Feature", "properties": { "OBJECTID": 295, "STOP_ID": 690, "STOP_NAME": "4112 MEDICAL PARKWAY/42ND", "STOP_TYPE": "Bus Stop", "STATUS": "Active" }, "geometry": { "type": "Point", "coordinates": [ -97.742666521756306, 30.310900758980399 ] } },
{ "type": "Feature", "properties": { "OBJECTID": 296, "STOP_ID": 691, "STOP_NAME": "MEDICAL PKWY/W. 40TH", "STOP_TYPE": "Bus Stop", "STATUS": "Active" }, "geometry": { "type": "Point", "coordinates": [ -97.742744648009506, 30.3085655399851 ] } },
{ "type": "Feature", "properties": { "OBJECTID": 297, "STOP_ID": 716, "STOP_NAME": "800 CESAR CHAVEZ/WEST", "STOP_TYPE": "Bus Stop", "STATUS": "Active" }, "geometry": { "type": "Point", "coordinates": [ -97.752405576034803, 30.2657412297341 ] } },
{ "type": "Feature", "properties": { "OBJECTID": 298, "STOP_ID": 717, "STOP_NAME": "B R Reynolds/Lamar", "STOP_TYPE": "Bus Stop", "STATUS": "Active" }, "geometry": { "type": "Point", "coordinates": [ -97.756576446637894, 30.267401573882101 ] } },
{ "type": "Feature", "properties": { "OBJECTID": 299, "STOP_ID": 722, "STOP_NAME": "1414 LAMAR/Collier/SB", "STOP_TYPE": "Bus Stop", "STATUS": "Active" }, "geometry": { "type": "Point", "coordinates": [ -97.764113989777201, 30.252465184082801 ] } },
{ "type": "Feature", "properties": { "OBJECTID": 300, "STOP_ID": 728, "STOP_NAME": "2806 Menchaca/LIGHTSEY", "STOP_TYPE": "Bus Stop", "STATUS": "Active" }, "geometry": { "type": "Point", "coordinates": [ -97.781627640398597, 30.243034929661601 ] } },
{ "type": "Feature", "properties": { "OBJECTID": 301, "STOP_ID": 729, "STOP_NAME": "3204 Menchaca/GLEN ALLEN", "STOP_TYPE": "Bus Stop", "STATUS": "Active" }, "geometry": { "type": "Point", "coordinates": [ -97.782241704457505, 30.240345186502498 ] } },
{ "type": "Feature", "properties": { "OBJECTID": 302, "STOP_ID": 730, "STOP_NAME": "3624 Menchaca/LARCHMONT", "STOP_TYPE": "Bus Stop", "STATUS": "Active" }, "geometry": { "type": "Point", "coordinates": [ -97.7835684213061, 30.237452273935101 ] } },
{ "type": "Feature", "properties": { "OBJECTID": 303, "STOP_ID": 732, "STOP_NAME": "3906 Menchaca/PRATHER", "STOP_TYPE": "Bus Stop", "STATUS": "Active" }, "geometry": { "type": "Point", "coordinates": [ -97.785765244431104, 30.233968878874101 ] } },
{ "type": "Feature", "properties": { "OBJECTID": 304, "STOP_ID": 733, "STOP_NAME": "4308 Menchaca/BEN WHITE", "STOP_TYPE": "Bus Stop", "STATUS": "Active" }, "geometry": { "type": "Point", "coordinates": [ -97.788112294349105, 30.230503679556499 ] } },
{ "type": "Feature", "properties": { "OBJECTID": 305, "STOP_ID": 734, "STOP_NAME": "4430 Menchaca/REDD", "STOP_TYPE": "Bus Stop", "STATUS": "Active" }, "geometry": { "type": "Point", "coordinates": [ -97.789380489932498, 30.228463659063799 ] } },
{ "type": "Feature", "properties": { "OBJECTID": 306, "STOP_ID": 735, "STOP_NAME": "4616 Menchaca/FOREST HILL", "STOP_TYPE": "Bus Stop", "STATUS": "Active" }, "geometry": { "type": "Point", "coordinates": [ -97.7909157912148, 30.2259909724851 ] } },
{ "type": "Feature", "properties": { "OBJECTID": 307, "STOP_ID": 736, "STOP_NAME": "4804 Menchaca/FRONTIER", "STOP_TYPE": "Bus Stop", "STATUS": "Active" }, "geometry": { "type": "Point", "coordinates": [ -97.792347415564606, 30.223742909322102 ] } },
{ "type": "Feature", "properties": { "OBJECTID": 308, "STOP_ID": 737, "STOP_NAME": "5000 Menchaca/JONES", "STOP_TYPE": "Bus Stop", "STATUS": "Active" }, "geometry": { "type": "Point", "coordinates": [ -97.794067444770306, 30.220975087436202 ] } },
{ "type": "Feature", "properties": { "OBJECTID": 309, "STOP_ID": 739, "STOP_NAME": "5322 Menchaca/INVERNESS", "STOP_TYPE": "Bus Stop", "STATUS": "Active" }, "geometry": { "type": "Point", "coordinates": [ -97.796092785118006, 30.2176833244304 ] } },
{ "type": "Feature", "properties": { "OBJECTID": 310, "STOP_ID": 740, "STOP_NAME": "5532 Menchaca/STASSNEY", "STOP_TYPE": "Bus Stop", "STATUS": "Active" }, "geometry": { "type": "Point", "coordinates": [ -97.797163146288398, 30.216058070943799 ] } },
{ "type": "Feature", "properties": { "OBJECTID": 311, "STOP_ID": 742, "STOP_NAME": "5720 Menchaca/WHITESTONE", "STOP_TYPE": "Bus Stop", "STATUS": "Active" }, "geometry": { "type": "Point", "coordinates": [ -97.799519321608201, 30.214391461060199 ] } },
{ "type": "Feature", "properties": { "OBJECTID": 312, "STOP_ID": 743, "STOP_NAME": "6212 Menchaca/BERKETT", "STOP_TYPE": "Bus Stop", "STATUS": "Active" }, "geometry": { "type": "Point", "coordinates": [ -97.803629241692093, 30.210670607210702 ] } },
{ "type": "Feature", "properties": { "OBJECTID": 313, "STOP_ID": 744, "STOP_NAME": "6372 Menchaca/BERKELEY", "STOP_TYPE": "Bus Stop", "STATUS": "Active" }, "geometry": { "type": "Point", "coordinates": [ -97.804710524975405, 30.208952140568101 ] } },
{ "type": "Feature", "properties": { "OBJECTID": 314, "STOP_ID": 745, "STOP_NAME": "6514 Menchaca/MILES", "STOP_TYPE": "Bus Stop", "STATUS": "Active" }, "geometry": { "type": "Point", "coordinates": [ -97.805929879515006, 30.2070777396615 ] } },
{ "type": "Feature", "properties": { "OBJECTID": 315, "STOP_ID": 750, "STOP_NAME": "Menchaca/William Cannon SE Cor", "STOP_TYPE": "Bus Stop", "STATUS": "Active" }, "geometry": { "type": "Point", "coordinates": [ -97.806816350177996, 30.202686538800901 ] } },
{ "type": "Feature", "properties": { "OBJECTID": 316, "STOP_ID": 751, "STOP_NAME": "6601 Menchaca/MILES", "STOP_TYPE": "Bus Stop", "STATUS": "Active" }, "geometry": { "type": "Point", "coordinates": [ -97.805837129227498, 30.206900521308 ] } },
{ "type": "Feature", "properties": { "OBJECTID": 317, "STOP_ID": 752, "STOP_NAME": "6305 Menchaca/BERKELEY", "STOP_TYPE": "Bus Stop", "STATUS": "Active" }, "geometry": { "type": "Point", "coordinates": [ -97.8044971495152, 30.2090179574137 ] } },
{ "type": "Feature", "properties": { "OBJECTID": 318, "STOP_ID": 754, "STOP_NAME": "6001 Menchaca/INDEPENDENCE", "STOP_TYPE": "Bus Stop", "STATUS": "Active" }, "geometry": { "type": "Point", "coordinates": [ -97.801882877478405, 30.212810471768901 ] } },
{ "type": "Feature", "properties": { "OBJECTID": 319, "STOP_ID": 755, "STOP_NAME": "5701 Menchaca/WHITESTONE", "STOP_TYPE": "Bus Stop", "STATUS": "Active" }, "geometry": { "type": "Point", "coordinates": [ -97.798856315425994, 30.2144910482371 ] } },
{ "type": "Feature", "properties": { "OBJECTID": 320, "STOP_ID": 757, "STOP_NAME": "Menchaca/Inverness", "STOP_TYPE": "Bus Stop", "STATUS": "Active" }, "geometry": { "type": "Point", "coordinates": [ -97.795718431027794, 30.217949185405899 ] } },
{ "type": "Feature", "properties": { "OBJECTID": 321, "STOP_ID": 758, "STOP_NAME": "5309 Menchaca/FAIR OAKS", "STOP_TYPE": "Bus Stop", "STATUS": "Active" }, "geometry": { "type": "Point", "coordinates": [ -97.794997580826006, 30.219058568397699 ] } },
{ "type": "Feature", "properties": { "OBJECTID": 322, "STOP_ID": 764, "STOP_NAME": "4301 Menchaca/FORT VIEW", "STOP_TYPE": "Bus Stop", "STATUS": "Active" }, "geometry": { "type": "Point", "coordinates": [ -97.787599261865907, 30.230860236902199 ] } },
{ "type": "Feature", "properties": { "OBJECTID": 323, "STOP_ID": 765, "STOP_NAME": "3909 Menchaca/PRATHER", "STOP_TYPE": "Bus Stop", "STATUS": "Active" }, "geometry": { "type": "Point", "coordinates": [ -97.785513818922198, 30.234049488443699 ] } },
{ "type": "Feature", "properties": { "OBJECTID": 324, "STOP_ID": 767, "STOP_NAME": "3505 Menchaca/LARCHMONT", "STOP_TYPE": "Bus Stop", "STATUS": "Active" }, "geometry": { "type": "Point", "coordinates": [ -97.782915190318505, 30.2382953918694 ] } },
{ "type": "Feature", "properties": { "OBJECTID": 325, "STOP_ID": 768, "STOP_NAME": "3201 Menchaca/GLEN ALLEN", "STOP_TYPE": "Bus Stop", "STATUS": "Active" }, "geometry": { "type": "Point", "coordinates": [ -97.782083530833006, 30.240511976150799 ] } },
{ "type": "Feature", "properties": { "OBJECTID": 326, "STOP_ID": 771, "STOP_NAME": "2639 LAMAR/DICKSON", "STOP_TYPE": "Bus Stop", "STATUS": "Active" }, "geometry": { "type": "Point", "coordinates": [ -97.779692948846403, 30.245377056685001 ] } },
{ "type": "Feature", "properties": { "OBJECTID": 327, "STOP_ID": 772, "STOP_NAME": "2401 LAMAR/BLUEBONNET", "STOP_TYPE": "Bus Stop", "STATUS": "Active" }, "geometry": { "type": "Point", "coordinates": [ -97.777395393991597, 30.246751729918302 ] } },
{ "type": "Feature", "properties": { "OBJECTID": 328, "STOP_ID": 773, "STOP_NAME": "2201 LAMAR/KINNEY", "STOP_TYPE": "Bus Stop", "STATUS": "Active" }, "geometry": { "type": "Point", "coordinates": [ -97.774278139728906, 30.247278688327899 ] } },
{ "type": "Feature", "properties": { "OBJECTID": 329, "STOP_ID": 777, "STOP_NAME": "LAMAR SQUARE STATION (NB)", "STOP_TYPE": "Rapid Station", "STATUS": "Active" }, "geometry": { "type": "Point", "coordinates": [ -97.762592218476797, 30.254033635307799 ] } },
{ "type": "Feature", "properties": { "OBJECTID": 330, "STOP_ID": 781, "STOP_NAME": "BARTON SPRINGS STATION (NB)", "STOP_TYPE": "Rapid Station", "STATUS": "Active" }, "geometry": { "type": "Point", "coordinates": [ -97.7580526608062, 30.261633845917601 ] } },
{ "type": "Feature", "properties": { "OBJECTID": 331, "STOP_ID": 806, "STOP_NAME": "3105 LAMAR/31ST", "STOP_TYPE": "Bus Stop", "STATUS": "Active" }, "geometry": { "type": "Point", "coordinates": [ -97.745953946076298, 30.300530151795499 ] } },
{ "type": "Feature", "properties": { "OBJECTID": 332, "STOP_ID": 807, "STOP_NAME": "3317 LAMAR/34TH", "STOP_TYPE": "Bus Stop", "STATUS": "Active" }, "geometry": { "type": "Point", "coordinates": [ -97.744683292801199, 30.3025534838171 ] } },
{ "type": "Feature", "properties": { "OBJECTID": 333, "STOP_ID": 809, "STOP_NAME": "38TH/MEDICAL PKWY", "STOP_TYPE": "Bus Stop", "STATUS": "Active" }, "geometry": { "type": "Point", "coordinates": [ -97.743878650669302, 30.305686223053499 ] } },
{ "type": "Feature", "properties": { "OBJECTID": 334, "STOP_ID": 811, "STOP_NAME": "MEDICAL PKWY/41ST", "STOP_TYPE": "Bus Stop", "STATUS": "Active" }, "geometry": { "type": "Point", "coordinates": [ -97.742575808241099, 30.309731128485002 ] } },
{ "type": "Feature", "properties": { "OBJECTID": 335, "STOP_ID": 813, "STOP_NAME": "MEDICAL PKWY/44TH", "STOP_TYPE": "Bus Stop", "STATUS": "Active" }, "geometry": { "type": "Point", "coordinates": [ -97.741916371480897, 30.3140539736794 ] } },
{ "type": "Feature", "properties": { "OBJECTID": 336, "STOP_ID": 814, "STOP_NAME": "BURNET/45TH", "STOP_TYPE": "Bus Stop", "STATUS": "Active" }, "geometry": { "type": "Point", "coordinates": [ -97.741031707821307, 30.316019996810098 ] } },
{ "type": "Feature", "properties": { "OBJECTID": 337, "STOP_ID": 815, "STOP_NAME": "BURNET/49TH", "STOP_TYPE": "Bus Stop", "STATUS": "Active" }, "geometry": { "type": "Point", "coordinates": [ -97.739145402290504, 30.3204939098955 ] } },
{ "type": "Feature", "properties": { "OBJECTID": 338, "STOP_ID": 816, "STOP_NAME": "5011 Burnet/Hancock", "STOP_TYPE": "Bus Stop", "STATUS": "Active" }, "geometry": { "type": "Point", "coordinates": [ -97.739242104287598, 30.3217655346476 ] } },
{ "type": "Feature", "properties": { "OBJECTID": 339, "STOP_ID": 817, "STOP_NAME": "NORTH LOOP STATION (NB)", "STOP_TYPE": "Rapid Station", "STATUS": "Active" }, "geometry": { "type": "Point", "coordinates": [ -97.739566297949494, 30.326283964717899 ] } },
{ "type": "Feature", "properties": { "OBJECTID": 340, "STOP_ID": 819, "STOP_NAME": "Burnet/Houston", "STOP_TYPE": "Bus Stop", "STATUS": "Closed" }, "geometry": { "type": "Point", "coordinates": [ -97.739741906675604, 30.328765954585499 ] } },
{ "type": "Feature", "properties": { "OBJECTID": 341, "STOP_ID": 820, "STOP_NAME": "BURNET/ADAMS", "STOP_TYPE": "Bus Stop", "STATUS": "Active" }, "geometry": { "type": "Point", "coordinates": [ -97.739875860786597, 30.330445812814801 ] } },
{ "type": "Feature", "properties": { "OBJECTID": 342, "STOP_ID": 821, "STOP_NAME": "5621 Burnet/Northland", "STOP_TYPE": "Bus Stop", "STATUS": "Closed" }, "geometry": { "type": "Point", "coordinates": [ -97.739997010904204, 30.3323841910906 ] } },
{ "type": "Feature", "properties": { "OBJECTID": 343, "STOP_ID": 822, "STOP_NAME": "ALLANDALE STATION (NB)", "STOP_TYPE": "Rapid Station", "STATUS": "Active" }, "geometry": { "type": "Point", "coordinates": [ -97.739800267997296, 30.334200243262799 ] } },
{ "type": "Feature", "properties": { "OBJECTID": 344, "STOP_ID": 824, "STOP_NAME": "6425 Burnet/Whitehorse", "STOP_TYPE": "Bus Stop", "STATUS": "Active" }, "geometry": { "type": "Point", "coordinates": [ -97.738900075022997, 30.339970237835502 ] } },
{ "type": "Feature", "properties": { "OBJECTID": 345, "STOP_ID": 826, "STOP_NAME": "JUSTIN STATION (NB)", "STOP_TYPE": "Rapid Station", "STATUS": "Active" }, "geometry": { "type": "Point", "coordinates": [ -97.737549999505504, 30.345183331944099 ] } },
{ "type": "Feature", "properties": { "OBJECTID": 346, "STOP_ID": 827, "STOP_NAME": "Burnet/Greenlawn Pkwy", "STOP_TYPE": "Bus Stop", "STATUS": "Active" }, "geometry": { "type": "Point", "coordinates": [ -97.735449998356998, 30.348509999666401 ] } },
{ "type": "Feature", "properties": { "OBJECTID": 347, "STOP_ID": 828, "STOP_NAME": "7439 BURNET/RICHCREEK", "STOP_TYPE": "Bus Stop", "STATUS": "Active" }, "geometry": { "type": "Point", "coordinates": [ -97.734240001644494, 30.350399997838899 ] } },
{ "type": "Feature", "properties": { "OBJECTID": 348, "STOP_ID": 829, "STOP_NAME": "Northcross Station (NB)", "STOP_TYPE": "Rapid Station", "STATUS": "Active" }, "geometry": { "type": "Point", "coordinates": [ -97.732080646545697, 30.3538583927436 ] } },
{ "type": "Feature", "properties": { "OBJECTID": 349, "STOP_ID": 832, "STOP_NAME": "Hogan/Community", "STOP_TYPE": "Bus Stop", "STATUS": "Active" }, "geometry": { "type": "Point", "coordinates": [ -97.702061896252602, 30.236954086659999 ] } },
{ "type": "Feature", "properties": { "OBJECTID": 350, "STOP_ID": 834, "STOP_NAME": "1214 Montopolis/Larch", "STOP_TYPE": "Bus Stop", "STATUS": "Active" }, "geometry": { "type": "Point", "coordinates": [ -97.698768760395694, 30.232433748794701 ] } },
{ "type": "Feature", "properties": { "OBJECTID": 351, "STOP_ID": 847, "STOP_NAME": "2700 7Th/Calles", "STOP_TYPE": "Bus Stop", "STATUS": "Active" }, "geometry": { "type": "Point", "coordinates": [ -97.7115205102576, 30.2606650289916 ] } },
{ "type": "Feature", "properties": { "OBJECTID": 352, "STOP_ID": 848, "STOP_NAME": "2500 7TH/PEDERNALES", "STOP_TYPE": "Bus Stop", "STATUS": "Active" }, "geometry": { "type": "Point", "coordinates": [ -97.713559861651902, 30.2609627920618 ] } },
{ "type": "Feature", "properties": { "OBJECTID": 353, "STOP_ID": 864, "STOP_NAME": "TRINITY/12TH", "STOP_TYPE": "Bus Stop", "STATUS": "Active" }, "geometry": { "type": "Point", "coordinates": [ -97.737149857196897, 30.272708842074401 ] } },
{ "type": "Feature", "properties": { "OBJECTID": 354, "STOP_ID": 866, "STOP_NAME": "Medical School NB (Trinity/17t", "STOP_TYPE": "Rapid Station", "STATUS": "Active" }, "geometry": { "type": "Point", "coordinates": [ -97.735396794986997, 30.277509852500199 ] } },
{ "type": "Feature", "properties": { "OBJECTID": 355, "STOP_ID": 870, "STOP_NAME": "1509 MARTIN LUTHER KING/COMAL", "STOP_TYPE": "Bus Stop", "STATUS": "Active" }, "geometry": { "type": "Point", "coordinates": [ -97.724700982783901, 30.279073986183501 ] } },
{ "type": "Feature", "properties": { "OBJECTID": 356, "STOP_ID": 872, "STOP_NAME": "1813 MARTIN LUTHER KING/CHICON", "STOP_TYPE": "Bus Stop", "STATUS": "Active" }, "geometry": { "type": "Point", "coordinates": [ -97.7213716574892, 30.2796950307713 ] } },
{ "type": "Feature", "properties": { "OBJECTID": 357, "STOP_ID": 873, "STOP_NAME": "2207 MARTIN LUTHER KING/FERDIN", "STOP_TYPE": "Bus Stop", "STATUS": "Active" }, "geometry": { "type": "Point", "coordinates": [ -97.718136515104902, 30.280230194726599 ] } },
{ "type": "Feature", "properties": { "OBJECTID": 358, "STOP_ID": 874, "STOP_NAME": "2401 MARTIN LUTHER KING/MAPLE", "STOP_TYPE": "Bus Stop", "STATUS": "Active" }, "geometry": { "type": "Point", "coordinates": [ -97.715949064583995, 30.2805862775847 ] } },
{ "type": "Feature", "properties": { "OBJECTID": 359, "STOP_ID": 875, "STOP_NAME": "2615 MARTIN LUTHER KING/WALNUT", "STOP_TYPE": "Bus Stop", "STATUS": "Active" }, "geometry": { "type": "Point", "coordinates": [ -97.7134577210212, 30.280971910746601 ] } },
{ "type": "Feature", "properties": { "OBJECTID": 360, "STOP_ID": 877, "STOP_NAME": "2915 MARTIN LUTHER KING/CLIFFO", "STOP_TYPE": "Bus Stop", "STATUS": "Active" }, "geometry": { "type": "Point", "coordinates": [ -97.7077986453302, 30.281868638567399 ] } },
{ "type": "Feature", "properties": { "OBJECTID": 361, "STOP_ID": 880, "STOP_NAME": "3431 MARTIN LUTHER KING/GREENW", "STOP_TYPE": "Bus Stop", "STATUS": "Active" }, "geometry": { "type": "Point", "coordinates": [ -97.698196973427699, 30.283318256327401 ] } },
{ "type": "Feature", "properties": { "OBJECTID": 362, "STOP_ID": 1118, "STOP_NAME": "1819 12TH/CHICON", "STOP_TYPE": "Bus Stop", "STATUS": "Active" }, "geometry": { "type": "Point", "coordinates": [ -97.7200013315896, 30.2736950428874 ] } },
{ "type": "Feature", "properties": { "OBJECTID": 363, "STOP_ID": 1121, "STOP_NAME": "2601 12TH/CEDAR", "STOP_TYPE": "Bus Stop", "STATUS": "Active" }, "geometry": { "type": "Point", "coordinates": [ -97.712845901723497, 30.274814763370099 ] } },
{ "type": "Feature", "properties": { "OBJECTID": 364, "STOP_ID": 1123, "STOP_NAME": "2863 12TH/ALEXANDER", "STOP_TYPE": "Bus Stop", "STATUS": "Active" }, "geometry": { "type": "Point", "coordinates": [ -97.708348719067999, 30.2755333005178 ] } },
{ "type": "Feature", "properties": { "OBJECTID": 365, "STOP_ID": 1126, "STOP_NAME": "3245 12TH/AIRPORT", "STOP_TYPE": "Bus Stop", "STATUS": "Active" }, "geometry": { "type": "Point", "coordinates": [ -97.700547384297707, 30.276730915850699 ] } },
{ "type": "Feature", "properties": { "OBJECTID": 366, "STOP_ID": 1127, "STOP_NAME": "3403 12TH/GREENWOOD", "STOP_TYPE": "Bus Stop", "STATUS": "Active" }, "geometry": { "type": "Point", "coordinates": [ -97.697085019380296, 30.277301003056799 ] } },
{ "type": "Feature", "properties": { "OBJECTID": 367, "STOP_ID": 1128, "STOP_NAME": "3525 12TH/E M FRANKLIN", "STOP_TYPE": "Bus Stop", "STATUS": "Active" }, "geometry": { "type": "Point", "coordinates": [ -97.694402164228805, 30.277722201318198 ] } },
{ "type": "Feature", "properties": { "OBJECTID": 368, "STOP_ID": 1130, "STOP_NAME": "1201 WEBBERVILLE/12TH", "STOP_TYPE": "Bus Stop", "STATUS": "Active" }, "geometry": { "type": "Point", "coordinates": [ -97.684544070225002, 30.278282406541798 ] } },
{ "type": "Feature", "properties": { "OBJECTID": 369, "STOP_ID": 1132, "STOP_NAME": "1419 WEBBERVILLE/FORT BRANCH", "STOP_TYPE": "Bus Stop", "STATUS": "Active" }, "geometry": { "type": "Point", "coordinates": [ -97.680965919975804, 30.279744310508701 ] } },
{ "type": "Feature", "properties": { "OBJECTID": 370, "STOP_ID": 1138, "STOP_NAME": "4021 TANNEHILL/SAMUEL HUSTON", "STOP_TYPE": "Bus Stop", "STATUS": "Active" }, "geometry": { "type": "Point", "coordinates": [ -97.673977349705396, 30.279192108639801 ] } },
{ "type": "Feature", "properties": { "OBJECTID": 371, "STOP_ID": 1141, "STOP_NAME": "1194 RUNDBERG/TEASDALE", "STOP_TYPE": "Bus Stop", "STATUS": "Active" }, "geometry": { "type": "Point", "coordinates": [ -97.681109651121204, 30.353996510880801 ] } },
{ "type": "Feature", "properties": { "OBJECTID": 372, "STOP_ID": 1143, "STOP_NAME": "838 RUNDBERG/MIDDLE FISKVILLE", "STOP_TYPE": "Bus Stop", "STATUS": "Active" }, "geometry": { "type": "Point", "coordinates": [ -97.686344783854096, 30.357436629733002 ] } },
{ "type": "Feature", "properties": { "OBJECTID": 373, "STOP_ID": 1148, "STOP_NAME": "GEORGIAN/HOME PL.", "STOP_TYPE": "Bus Stop", "STATUS": "Active" }, "geometry": { "type": "Point", "coordinates": [ -97.696473802249997, 30.355832237655601 ] } },
{ "type": "Feature", "properties": { "OBJECTID": 374, "STOP_ID": 1150, "STOP_NAME": "GEORGIAN/JENNIFER", "STOP_TYPE": "Bus Stop", "STATUS": "Active" }, "geometry": { "type": "Point", "coordinates": [ -97.702015517888597, 30.3497520276599 ] } },
{ "type": "Feature", "properties": { "OBJECTID": 375, "STOP_ID": 1151, "STOP_NAME": "GEORGIAN/POWELL", "STOP_TYPE": "Bus Stop", "STATUS": "Active" }, "geometry": { "type": "Point", "coordinates": [ -97.703234174162304, 30.347697057427201 ] } },
{ "type": "Feature", "properties": { "OBJECTID": 376, "STOP_ID": 1152, "STOP_NAME": "8000 GEORGIAN/ANDERSON", "STOP_TYPE": "Bus Stop", "STATUS": "Active" }, "geometry": { "type": "Point", "coordinates": [ -97.704659489584103, 30.344901674802099 ] } },
{ "type": "Feature", "properties": { "OBJECTID": 377, "STOP_ID": 1153, "STOP_NAME": "7700 NORTHCREST/ANDERSON", "STOP_TYPE": "Bus Stop", "STATUS": "Active" }, "geometry": { "type": "Point", "coordinates": [ -97.705878120103407, 30.343360109423902 ] } },
{ "type": "Feature", "properties": { "OBJECTID": 378, "STOP_ID": 1156, "STOP_NAME": "CRESTLAND/MEADOWVIEW", "STOP_TYPE": "Bus Stop", "STATUS": "Active" }, "geometry": { "type": "Point", "coordinates": [ -97.711761444457693, 30.3396814740249 ] } },
{ "type": "Feature", "properties": { "OBJECTID": 379, "STOP_ID": 1157, "STOP_NAME": "7414 GUADALUPE/CRESTLAND", "STOP_TYPE": "Bus Stop", "STATUS": "Closed" }, "geometry": { "type": "Point", "coordinates": [ -97.713145623521299, 30.339900750333499 ] } },
{ "type": "Feature", "properties": { "OBJECTID": 380, "STOP_ID": 1158, "STOP_NAME": "7106 GUADALUPE/ST JOHNS", "STOP_TYPE": "Bus Stop", "STATUS": "Active" }, "geometry": { "type": "Point", "coordinates": [ -97.714833287490706, 30.337324328253299 ] } },
{ "type": "Feature", "properties": { "OBJECTID": 381, "STOP_ID": 1159, "STOP_NAME": "GUADALUPE/SWANEE", "STOP_TYPE": "Bus Stop", "STATUS": "Active" }, "geometry": { "type": "Point", "coordinates": [ -97.715902859733305, 30.3357045565057 ] } },
{ "type": "Feature", "properties": { "OBJECTID": 382, "STOP_ID": 1164, "STOP_NAME": "5600 AVENUE F/56TH", "STOP_TYPE": "Bus Stop", "STATUS": "Active" }, "geometry": { "type": "Point", "coordinates": [ -97.718996093022596, 30.3211674670363 ] } },
{ "type": "Feature", "properties": { "OBJECTID": 383, "STOP_ID": 1168, "STOP_NAME": "DUVAL/51ST", "STOP_TYPE": "Bus Stop", "STATUS": "Active" }, "geometry": { "type": "Point", "coordinates": [ -97.719922470071694, 30.3143624144932 ] } },
{ "type": "Feature", "properties": { "OBJECTID": 384, "STOP_ID": 1169, "STOP_NAME": "DUVAL/48TH", "STOP_TYPE": "Bus Stop", "STATUS": "Active" }, "geometry": { "type": "Point", "coordinates": [ -97.722129468685097, 30.3109677821286 ] } },
{ "type": "Feature", "properties": { "OBJECTID": 385, "STOP_ID": 1171, "STOP_NAME": "DUVAL/43RD", "STOP_TYPE": "Bus Stop", "STATUS": "Active" }, "geometry": { "type": "Point", "coordinates": [ -97.7263566200333, 30.304380398567599 ] } },
{ "type": "Feature", "properties": { "OBJECTID": 386, "STOP_ID": 1172, "STOP_NAME": "4002 DUVAL/41ST", "STOP_TYPE": "Bus Stop", "STATUS": "Active" }, "geometry": { "type": "Point", "coordinates": [ -97.728038100753494, 30.301673630189701 ] } },
{ "type": "Feature", "properties": { "OBJECTID": 387, "STOP_ID": 1174, "STOP_NAME": "DUVAL/33RD", "STOP_TYPE": "Bus Stop", "STATUS": "Active" }, "geometry": { "type": "Point", "coordinates": [ -97.731831599596404, 30.295649309390701 ] } },
{ "type": "Feature", "properties": { "OBJECTID": 388, "STOP_ID": 1175, "STOP_NAME": "3200 DUVAL/32ND", "STOP_TYPE": "Bus Stop", "STATUS": "Active" }, "geometry": { "type": "Point", "coordinates": [ -97.732495462529997, 30.294602922367499 ] } },
{ "type": "Feature", "properties": { "OBJECTID": 389, "STOP_ID": 1176, "STOP_NAME": "DUVAL/30TH", "STOP_TYPE": "Bus Stop", "STATUS": "Active" }, "geometry": { "type": "Point", "coordinates": [ -97.734221950307102, 30.2918762796123 ] } },
{ "type": "Feature", "properties": { "OBJECTID": 390, "STOP_ID": 1177, "STOP_NAME": "SAN JACINTO/DEAN KEETON NW COR", "STOP_TYPE": "Bus Stop", "STATUS": "Active" }, "geometry": { "type": "Point", "coordinates": [ -97.734685632596396, 30.2895990126135 ] } },
{ "type": "Feature", "properties": { "OBJECTID": 391, "STOP_ID": 1178, "STOP_NAME": "2324 San Jacinto/24Th", "STOP_TYPE": "Bus Stop", "STATUS": "Active" }, "geometry": { "type": "Point", "coordinates": [ -97.733652082286795, 30.286710312840899 ] } },
{ "type": "Feature", "properties": { "OBJECTID": 392, "STOP_ID": 1179, "STOP_NAME": "UT Stadium SB (San Jacinto/23r", "STOP_TYPE": "Rapid Station", "STATUS": "Active" }, "geometry": { "type": "Point", "coordinates": [ -97.733782165909702, 30.285505707937102 ] } },
{ "type": "Feature", "properties": { "OBJECTID": 393, "STOP_ID": 1180, "STOP_NAME": "2098 SAN JACINTO/21ST", "STOP_TYPE": "Bus Stop", "STATUS": "Active" }, "geometry": { "type": "Point", "coordinates": [ -97.734100142327506, 30.283014261665201 ] } },
{ "type": "Feature", "properties": { "OBJECTID": 394, "STOP_ID": 1186, "STOP_NAME": "715 RIVERSIDE/ALAMEDA", "STOP_TYPE": "Bus Stop", "STATUS": "Active" }, "geometry": { "type": "Point", "coordinates": [ -97.740609866308901, 30.2507344790316 ] } },
{ "type": "Feature", "properties": { "OBJECTID": 395, "STOP_ID": 1187, "STOP_NAME": "1005 EAST RIVERSIDE/TRAVIS HEI", "STOP_TYPE": "Bus Stop", "STATUS": "Active" }, "geometry": { "type": "Point", "coordinates": [ -97.738347977206701, 30.249589499723701 ] } },
{ "type": "Feature", "properties": { "OBJECTID": 396, "STOP_ID": 1188, "STOP_NAME": "RIVERSIDE/KENWOOD", "STOP_TYPE": "Bus Stop", "STATUS": "Active" }, "geometry": { "type": "Point", "coordinates": [ -97.736885771223299, 30.248591677400899 ] } },
{ "type": "Feature", "properties": { "OBJECTID": 397, "STOP_ID": 1190, "STOP_NAME": "1724 BURTON/WOODLAND", "STOP_TYPE": "Bus Stop", "STATUS": "Active" }, "geometry": { "type": "Point", "coordinates": [ -97.728458841539407, 30.2361522057762 ] } },
{ "type": "Feature", "properties": { "OBJECTID": 398, "STOP_ID": 1191, "STOP_NAME": "1920 BURTON/MARIPOSA", "STOP_TYPE": "Bus Stop", "STATUS": "Active" }, "geometry": { "type": "Point", "coordinates": [ -97.731811995534798, 30.233861166854101 ] } },
{ "type": "Feature", "properties": { "OBJECTID": 399, "STOP_ID": 1193, "STOP_NAME": "2310 PARKER/OLTORF", "STOP_TYPE": "Bus Stop", "STATUS": "Active" }, "geometry": { "type": "Point", "coordinates": [ -97.737285412361203, 30.231874116836298 ] } },
{ "type": "Feature", "properties": { "OBJECTID": 400, "STOP_ID": 1194, "STOP_NAME": "2504 PARKER/BRAXTON", "STOP_TYPE": "Bus Stop", "STATUS": "Active" }, "geometry": { "type": "Point", "coordinates": [ -97.738556656375394, 30.229928915595998 ] } },